"地点名称","楼盘名称","地址","纬度","经度"
"囍逸 2座 中層 A室",NA,NA,NA,NA
"One Homantin 2座 高層 B室",NA,NA,NA,NA
"峻瀅 1期 5座 低層 E室",NA,NA,NA,NA
"環宇海灣 3座 中層 B室","City Point Block 3","City Point Block 3, 48 Tsuen Wan Rd, Tsuen Wan, Hong Kong",22.3646715,114.1142676
"黃金閣 低層 G室","Golden Court","145號 Fuk Wing St, Un Chau, Hong Kong",22.3323731,114.1619809
"碧海藍天 2座 中層 C室","Aqua Marine Tower 2","Aqua Marine Tower 2, 8 Sham Shing Rd, Cheung Sha Wan, Hong Kong",22.3325032,114.1489145
"屯門市廣場 1期 6座 中層 G室","Hong Kong Gold Coast Block 6","Hong Kong Gold Coast Block 6, 1 Castle Peak Road-Castle Peak Bay, So Kwun Wat, Hong Kong",22.3693557,113.9948375
"富景花園 2座 高層 A室","Fullview Garden Block 11","18號 Siu Sai Wan Rd, Siu Sai Wan, Hong Kong",22.2630993,114.2520342
"海福花園 福祺閣 (3座) 中層 K室","Fook Ki Court, Holford Garden","Hong Kong, Tai Wai, Chik Wan St, Holford Garden Fook Ki Court, 海福花園",22.3731611,114.1759376
"新都城 1期 4座 低層 C室",NA,NA,NA,NA
"帝景峰 帝景臺 8座 6號複式","Dynasty Heights Dynasty Villa","Dynasty Height Dynasty Villa Block 5, 2 Yin Ping Rd, Beacon Hill, Hong Kong",22.3437587,114.1628993
"天晉 海天晉 3座 高層 A室","The Wings IIIA","19 Tong Yin St, Tseung Kwan O, Hong Kong",22.3055989,114.2594818
"柏景灣 2期 帝柏海灣 5座 中層 C室",NA,NA,NA,NA
"逸濤灣 春瑤軒 (1座) 低層 C室","Les Saisons","28 Tai On St, Aldrich Bay, Hong Kong",22.2836257,114.2247769
"都會駅 1期 3座 高層 E室",NA,NA,NA,NA
"金源洋樓 C座 低層 6室","Goldmine Building Block C","Goldmine Building Block C, 345 Chai Wan Rd, Chai Wan, Hong Kong",22.2645265,114.2402455
"杏花邨 16座 高層 6室","Heng Fa Chuen Block 24","Heng Fa Chuen Block 24, 100 Shing Tai Rd, Pak Sha Wan, Hong Kong",22.2785641,114.2402346
"卓爾居 2期 5座 高層 G室",NA,NA,NA,NA
"香島 3座 低層 C室",NA,NA,NA,NA
"康怡花園 L座 (9-16室) 低層 15室","Kornhill Block L","Kornhill Block L, 41 Hong Yue St, Kornhill, Hong Kong",22.284025,114.2174968
"滿華樓 高層 2號",NA,NA,NA,NA
"華健大廈 中層 B室","Wah Kin Mansion","11 N View St, North Point, Hong Kong",22.2895565,114.1968169
"峰景大廈 A-B座 中層 B室","Hilltop Mansion","Hong Kong, Cloud View Rd, 60號寶馬山7864",22.2867653,114.1988322
"美孚新邨 1期 百老匯街19-21號 高層 19號B室",NA,NA,NA,NA
"美孚新邨 1期 百老匯街5-7號 高層 7號B室",NA,NA,NA,NA
"帝峰．皇殿 8座 高層 C室","The Hermitage Tower 8","The Hermitage Tower 8, Mong Kok, Hong Kong",22.3177267,114.1637591
"麗港城 3期 33座 高層 C室","Laguna City Phase 3 Club House","2 S Laguna St, Kwun Tong, Hong Kong",22.305115,114.2282595
"弦海 中層 P室","The Esplanade","101號 Yip Wong Rd, Tuen Mun, Hong Kong",22.3864777,113.968837
"金邦大廈 高層 E室","Common Bond Building","Common Bond Building, Tsing Chui Path, San Hui, Hong Kong",22.4034961,113.9790085
"雅都花園 C座 低層 C室","雅都大廈BLOCK C","Choi Yee Bridge Rd, San Hui, Hong Kong",22.3986962,113.9757992
"新港城 4期 H座 中層 1室",NA,NA,NA,NA
"美孚新邨 2期 吉利徑5-7號 高層 5號C室",NA,NA,NA,NA
"大坑台 A座 低層 6室",NA,NA,NA,NA
"丰滙 1座 高層 D室","Trinity Towers - Tower 1","Trinity Towers - Tower 1, Lai Chi Kok Rd, Sham Shui Po, Hong Kong",22.3289285,114.1596576
"匯璽 2A期 2B座 中層 G室",NA,NA,NA,NA
"匯璽 3期 匯璽ll 3B座 高層 E室",NA,NA,NA,NA
"海韻花園 2座 高層 D室","Rhine Garden Block 2","Rhine Garden Block 2, 38 Castle Peak Road-Sham Tseng, Sham Tseng, Hong Kong",22.3684875,114.0612743
"海韻花園 2座 高層 E室","Rhine Garden Block 2","Rhine Garden Block 2, 38 Castle Peak Road-Sham Tseng, Sham Tseng, Hong Kong",22.3684875,114.0612743
"藍天海岸 1期 5座 中層 H室",NA,NA,NA,NA
"榮輝中心 4座 中層 K室","Wing Fai Centre","聯和墟聯捷街2-10號榮輝中心 /WING FAI CENTRE, 2-10 LUEN CHIT ST., LUEN WO HUI, N.T, Fanling, Hong Kong",22.501766,114.1435277
"花都廣場 4座 高層 F室",NA,NA,NA,NA
"天平邨 天賀樓 (3座) 中層 24室",NA,NA,NA,NA
"海璇 1B期 5A座 低層 D室",NA,NA,NA,NA
"維景花園 A座 低層 5室","Grandeur Garden","3 King Fung Path, Tuen Mun, Hong Kong",22.4050004,113.9812319
"Yoho Town 2期 Yoho Midtown 3座 低層 E室",NA,NA,NA,NA
"海之戀 3期A 海之戀．愛炫美 3A座 中層 B室",NA,NA,NA,NA
"海之戀 3期A 海之戀．愛炫美 3A座 中層 A室",NA,NA,NA,NA
"峻巒 2C期 Park Yoho Milano 32A座 低層 E室",NA,NA,NA,NA
"寶雅苑 興和閣 (B座) 高層 11室","Po Nga Court Block B Hing Wo House","Po Nga Court Block B Hing Wo House, 2 Tai Po Tai Wo Rd, Tai Wo Estate, Hong Kong",22.4507355,114.1587588
"彩明苑 彩楊閣 (A座) 高層 5室",NA,NA,NA,NA
"采葉庭 11座 中層 C室","采葉庭有格生活智能櫃","Hong Kong, Yuen Long, Yuen Long Kau Hui Rd, 33號舊墟路33號采葉庭平台有格生活智能櫃(住戶專用) The Parcville Tower 13",22.450036,114.032359
"嘉亨灣 1座 中層 A室","Grand Promenade","38 Tai Hong St, Aldrich Bay, Hong Kong",22.2849749,114.2246615
"尚城 5座 高層 F室","Uptown Tower 5","Uptown Tower 5, 600 Castle Peak Rd - Hung Shui Kiu, Hung Shui Kiu, Hong Kong",22.4344826,114.0009937
"尚匯 中層 A室","The Gloucester","The Gloucester, Gloucester Rd, Wan Chai, Hong Kong",22.2802111,114.1794799
"Silicon Hill University Hill 2B期 優景閣 第2座 中層 A1室",NA,NA,NA,NA
"新達廣場 6座 中層 A室","Uptown Plaza","9 Nam Wan Rd, Tai Po, Hong Kong",22.443554,114.169348
"天祐苑 祐寧閣 (B座) 高層 2室","Tin Yau Court","1 Tin Shing Rd, Tin Shui Wai, Hong Kong",22.4513206,114.0059496
"柏傲灣 2B座 低層 D室",NA,NA,NA,NA
"荃景花園 2期 8座 高層 B室","Tsuen King Garden Phase 2","Tsuen King Circuit, Hong Kong",22.3781127,114.1100626
"帝堡城 6座 中層 H室","The Castello Block 6","The Castello Block 6, 69 Siu Lek Yuen Road, Siu Lek Yuen, Hong Kong",22.3841425,114.2159498
"綠悠雅苑 2座 高層 D室","Greenview Villa Tower 2","Greenview Villa Tower 2, 18 Tsing Luk St, Tsing Yi, Hong Kong",22.3528756,114.1042442
"環宇海灣 1座 中層 E室","City Point Block 1","City Point Block 1, 48 Wing Shun St, Tsuen Wan, Hong Kong",22.3652523,114.1136068
"嘉田苑 嘉康閣 (A座) 高層 2室","Ka Tin Court Block A Ka Hong House","Ka Tin Court Block A Ka Hong House, 10 Hin Tin St, Tai Wai, Hong Kong",22.3613564,114.1727087
"Yoho Town 2期 Yoho Midtown 7座 高層 B室",NA,NA,NA,NA
"嘉湖山莊 7期 景湖居 12座 低層 B室","Kenswood Court - Kingswood Villas Block 12","Kenswood Court - Kingswood Villas Block 12, 2 Tin Lung Rd, Tin Shui Wai, Hong Kong",22.4583631,114.005936
"維景灣畔 3期 15 座 低層 E室","維景灣畔第三期商場","Hong Kong, Tseung Kwan O, Chui Ling Rd, 調景嶺體育館及圖書館",22.3037128,114.2525145
"嘉湖山莊 2期 賞湖居 5座 低層 E室","Sherwood Crt - Kingswood Villas Block 5","Sherwood Crt - Kingswood Villas Block 5, 3 Tin Wu Rd, Tin Shui Wai, Hong Kong",22.4539192,114.0024108
"雲疊花園 4座 高層 B室","Carado Garden Block 4","Carado Garden Block 4, 26 Tin Sam St, Tai Wai, Hong Kong",22.3679371,114.176559
"翠竹花園 12座 中層 B室","Tsui Chuk Garden Block 12","Tsui Chuk Garden Block 12, 8 Chui Chuk St, Chuk Un, Hong Kong",22.3463331,114.1879191
"盈暉臺 2座 中層 H室","Nob Hill Tower 2","Nob Hill Tower 2, 8 King Lai Path, Lai Chi Kok, Hong Kong",22.3417077,114.1375023
"金獅花園 2期 金福閣 (E座) 高層 6室",NA,NA,NA,NA
"祥和苑 和誠閣 (C座) 低層 6室","Cheung Wo Court Wo Shing House","Cheung Wo Court Wo Shing House, 277 Hip Wo St, Hong Kong",22.3187954,114.2270223
"維景灣畔 2期 7座 高層 A室",NA,NA,NA,NA
"日出康城 2期A 領都 1座 (左翼) 中層 B室",NA,NA,NA,NA
"藍灣半島 7座 高層 A室","Island Resort","Shop 11-12, Ground Floor, 28 Siu Sai Wan Rd, Siu Sai Wan, Hong Kong",22.2662459,114.2508717
"豪景花園 1期 碧華閣 (6座) 中層 F室","Hong Kong Garden BLK 6 Beverley Heights","Hong Kong Garden Block 6 Beverley Heights, 100 Castle Peak Rd-Tsing Lung Tau, Tsing Lung Tau, Hong Kong",22.362793,114.044544
"海逸豪園 4期(IVA) 海逸灣 16座 高層 C室","Laguna Verde","8 Laguna Verde Ave, Hung Hom, Hong Kong",22.308068,114.192812
"日出康城 3期A 緻藍天 珀峰 (3座) 高層 LA室","日出康城三期緻藍天三座珀峰","1 Lohas Park Rd, 號 Hong Kong",22.2971829,114.2701501
"將軍澳中心 1期 9座 中層 F室",NA,NA,NA,NA
"荃灣中心 濟南樓 (18座) 中層 E室","Tsuen Wan Centre Tsinan House","Tsuen Wan Centre Tsinan House, 93 Tsuen King Circuit, Hong Kong",22.3788976,114.1071822
"富澤花園 富嘉閣 高層 C室","Fortress Garden Fu Kar Court","FU KAR COURT, Fortress Garden Fu Kar Court, 32 FORTRESS HILL ROAD, H.K, 32號 Fortress Hill Rd, Hong Kong",22.2867882,114.1950612
"維景灣畔 2期 7座 高層 C室",NA,NA,NA,NA
"逸瓏灣8 3C座 中層 A室",NA,NA,NA,NA
"太古城 高山台 東山閣 (6座) 高層 A室",NA,NA,NA,NA
"太古城 高山台 廬山閣 (9座) 低層 G室",NA,NA,NA,NA
"海怡花園 1座 高層 2室","Harbour View Garden Blk 2","2 Catchick St, Kennedy Town, Hong Kong",22.2833491,114.1293324
"嘉湖山莊 1期 樂湖居 4座 高層 A室","Locwood Court - Kingswood Villas Block 4","Locwood Court - Kingswood Villas Block 4, 1 Tin Wu Rd, Tin Shui Wai, Hong Kong",22.4514123,114.0005068
"新達廣場 1座 高層 H室","Uptown Plaza","9 Nam Wan Rd, Tai Po, Hong Kong",22.443554,114.169348
"朗怡居 2座 低層 C室","Villas Premiere Block 2","Villas Premiere Block 2, 99 Fung Cheung Rd, Yuen Long, Hong Kong",22.4402029,114.0342289
"香港黃金海岸 3座 12樓 A室","Hong Kong Gold Coast Block 3","Hong Kong Gold Coast Block 3, 1 Castle Peak Road-Castle Peak Bay, So Kwun Wat, Hong Kong",22.3733165,113.9914225
"和富大樓 十一樓 A室","Provident Centre Blk 11","41號 Wharf Rd, North Point, Hong Kong",22.2926473,114.1968965
"東熹苑 華熹閣 (C座) 四樓 14室","Tung Hei Court Block C Wah Hei House","38號 Yiu Hing Rd, Sai Wan Ho, Hong Kong",22.2797592,114.2194046
"永業大廈 十樓 D室","Yip Wong Estate Yip Wo House","21號 Tin Hau Rd, Tuen Mun, Hong Kong",22.3880403,113.968368
"荃景花園 1期 4座 29樓 B室",NA,NA,NA,NA
"荃景花園 2期 11座 17樓 E室",NA,NA,NA,NA
"翠屏花園 B座 11樓 7室",NA,NA,NA,NA
"逸濤灣 冬和軒 (4座) 32樓 E室","Les Saisons Block 4 L'Hiver","28號 Tai On St, Aldrich Bay, Hong Kong",22.2832523,114.2247234
"翠景花園 1座 22樓 F室","Park View Garden Block 1","Park View Garden Block 1, 8 Pik Tin St, Tai Wai, Hong Kong",22.3782327,114.172768
"濱景花園 3座 27樓 C室","Ravana Garden Block 3","Ravana Garden Block 3, 1 On King St, Sha Tin, Hong Kong",22.3917519,114.2051723
"海濱花園 海霞閣 (6座) 31樓 B室",NA,NA,NA,NA
"永利中心 C座 十三樓 C4室",NA,NA,NA,NA
"太古城 安盛台 寧安閣 (27座) 25樓 E室","Taikoo Shing, On Shing Terrace Ning On Mansion","Taikoo Shing, On Shing Terrace Ning On Mansion, 28 Tai Koo Shing Rd, Taikoo Shing, Hong Kong",22.2862159,114.2148186
"啟鑽苑 4座 (啟濤閣) 31樓 16室",NA,NA,NA,NA
"冠山苑 21樓 5室",NA,NA,NA,NA
"啟欣苑 A座 35樓 17室",NA,NA,NA,NA
"啟欣苑 A座 11樓 2室",NA,NA,NA,NA
"啟欣苑 A座 24樓 20室","啟潤閣","Hong Kong, Kai Tak, Muk Lai St, 6號啟欣苑A座",22.327314,114.1948259
"啟欣苑 A座 31樓 23室",NA,NA,NA,NA
"合眾樓 二樓 31號","合眾樓","31-41號 Kai Tak Rd, Kowloon City, Hong Kong",22.3293714,114.1919511
"合眾樓 二樓 41號","合眾樓","31-41號 Kai Tak Rd, Kowloon City, Hong Kong",22.3293714,114.1919511
"順利大廈 B座 4樓 B3室",NA,NA,NA,NA
"葵芳閣 1座 20樓 F室","Kwai Fong Terrace Block 1","Kwai Fong Terrace Block 1, 15 Kwai Yi Rd, Kwai Fong, Hong Kong",22.3555952,114.1282045
"威發大廈 十二樓 D室","威發大廈","Wai Fat Building, Hak Po St, Mong Kok, Hong Kong",22.319506,114.172409
"啟德花園 3座 8樓 H室","Kai Tak Garden","121號 Choi Hung Rd, Chuk Un, Hong Kong",22.3382388,114.1945111
"愛蝶灣 車位 7樓 722號",NA,NA,NA,NA
"新寶城 1座 43樓 D室","La Cite Noble Block 1","La Cite Noble Block 1, 1 Ngan O Rd, Hang Hau, Hong Kong",22.313568,114.266122
"荷李活華庭 A座 34樓 G室","Hollywood Terrace Block A","Hollywood Terrace Block A, 123 Hollywood Rd, Tai Ping Shan, Hong Kong",22.2841794,114.1513263
"海茵莊園 2座 22樓 B7室",NA,NA,NA,NA
"藍天海岸 4期 水藍‧天岸 2座 3樓 C室",NA,NA,NA,NA
"嘉湖山莊 5期 麗湖居 9座 35樓 C室","Lynwood Court - Kingswood Villas Block 9","Lynwood Court - Kingswood Villas Block 9, 3 Tin Kwai Rd, Tin Shui Wai, Hong Kong",22.4614229,114.0031634
"景賜大廈 16樓 C室",NA,NA,NA,NA
"麗柏苑 6(F)座","Villa Le Parc","20 To Fung Shan Rd, Sha Tin, Hong Kong",22.3800613,114.1849178
"怡心園 3座 23樓 A室","怡心园三座","Serenity Place Block 3, 88號 Po Hong Rd, Tseung Kwan O, Hong Kong",22.3220391,114.2537976
"瓏珀山 2期 King Tower 2座 9樓 D室",NA,NA,NA,NA
"日出康城 2期A 領都 2座 (左翼) 56樓 B室",NA,NA,NA,NA
"Capri 8座 2樓 C室","Capri","33 Tong Yin St, Tseung Kwan O, Hong Kong",22.3025171,114.2571728
"天頌苑 頌畫閣 (P座) 8樓 8室","天頌苑頌臺閣","Tin Wing Rd, Tin Shui Wai, Hong Kong",22.4607004,114.0005041
"啟鑽苑 5座 (啟湖閣) 25樓 6室","Kai Chuen Court","235號 Choi Hung Rd, Tai Hom, Hong Kong",22.3393001,114.2000991
"啟鑽苑 4座 (啟濤閣) 2樓 5室",NA,NA,NA,NA
"啟鑽苑 4座 (啟濤閣) 21樓 17室",NA,NA,NA,NA
"啟鑽苑 5座 (啟湖閣) 5樓 5室","啟鑽苑第5座啟湖閣","235號 Choi Hung Rd, Tai Hom, Hong Kong",22.338871,114.200978
"啟鑽苑 4座 (啟濤閣) 19樓 6室",NA,NA,NA,NA
"均益大廈 1期 均益大廈第1期 二十三樓 5D室","Kwan Yick Building Phase 2 Shopping Arcade","343 Des Voeux Rd W, Sai Wan, Hong Kong",22.2875172,114.1380481
"馬頭圍道96號 二樓 96號","二 96 号","二 96 号, 96 Ma Tau Wai Road, 96 Ma Tau Wai Rd, Hok Yuen, Hong Kong",22.3100861,114.1874405
"馬頭圍道96號 三樓 96號","三 96 号","三 96 号, 96 Ma Tau Wai Road, 96 Ma Tau Wai Rd, Hok Yuen, Hong Kong",22.3100861,114.1874405
"馬頭圍道96號 四樓 96號","四 96 号","四 96 号, 96 Ma Tau Wai Road, 96 Ma Tau Wai Rd, Hok Yuen, Hong Kong",22.3100861,114.1874405
"馬頭圍道96號 六樓 96號","六 96 号","六 96 号, 96 Ma Tau Wai Road, 96 Ma Tau Wai Rd, Hok Yuen, Hong Kong",22.3100861,114.1874405
"馬頭圍道96號 九樓 96號","九 96 号","九 96 号, 96 Ma Tau Wai Road, 96 Ma Tau Wai Rd, Hok Yuen, Hong Kong",22.3100861,114.1874405
"馬頭圍道96號 十樓 96號","十 96 号","十 96 号, 96 Ma Tau Wai Road, 96 Ma Tau Wai Rd, Hok Yuen, Hong Kong",22.3100861,114.1874405
"馬頭圍道96號 十一樓 96號","十 一","十 一, 96 Ma Tau Wai Road, 96 Ma Tau Wai Rd, Hok Yuen, Hong Kong",22.3100861,114.1874405
"名鑽 2樓 F室",NA,NA,NA,NA
"林海山城 1座","Villa Lucca","36 Lo Fai Rd, Ting Kok, Hong Kong",22.4625128,114.1974501
"富怡花園 2座 22樓 C室","Cheerful Garden Block 2","Cheerful Garden Block 2, 23 Siu Sai Wan Rd, Siu Sai Wan, Hong Kong",22.2632878,114.250307
"皇府山 1座 1樓 B室","Noble Hill Tower 1","Noble Hill Tower 1, 38 Ma Sik Rd, Sheung Shui, Hong Kong",22.5036184,114.1345993
"輝鴻閣 25樓 E室",NA,NA,NA,NA
"The Haddon 25樓 P室",NA,NA,NA,NA
"沙田中心 海寧大廈 (B座) 6樓 F室",NA,NA,NA,NA
"愉景灣 3期寶峰 寶晶閣 17樓 C室",NA,NA,NA,NA
"滙都 2期 滙都 II 6座 3樓 A01室",NA,NA,NA,NA
"滙都 2期 滙都 II 6座 3樓 B03室",NA,NA,NA,NA
"滙都 2期 滙都 II 6座 3樓 B08室",NA,NA,NA,NA
"滙都 2期 滙都 II 6座 5樓 A07室","High Park","1 Hung On Ln, Hung Shui Kiu, Hong Kong",22.4347218,113.9965679
"滙都 2期 滙都 II 6座 7樓 A05室",NA,NA,NA,NA
"滙都 2期 滙都 II 6座 11樓 A01室",NA,NA,NA,NA
"滙都 2期 滙都 II 6座 11樓 A02室",NA,NA,NA,NA
"浪翠園 5期(帝華軒) 車位 地下 58號",NA,NA,NA,NA
"浪翠園 5期(帝華軒) 1座 15樓 D室",NA,NA,NA,NA
"嘉峰臺 1期 3座 24樓 E室",NA,NA,NA,NA
"海韻花園 4座 27樓 F室","Rhine Garden Block 4","Rhine Garden Block 4, 38 Castle Peak Road-Sham Tseng, Sham Tseng, Hong Kong",22.3684325,114.0620409
"文耀樓 十六樓 44室","八文樓","Hong Kong, Jordan, Man Wai St, 25-47號香港佐敦文蔚街25-47號 Man Yiu Building",22.307635,114.1662706
"太古城 星輝台 衛星閣 (49座) 24樓 B室",NA,NA,NA,NA
"曼克頓山 5座 51樓 D室","Manhattan Hill Tower 5","Manhattan Hill Tower 5, 1 Po Lun St, Lai Chi Kok, Hong Kong",22.3350888,114.1424258
"文英樓 六樓 8室(18號)","八文樓","Hong Kong, Jordan, Man Wai St, 25-47號香港佐敦文蔚街25-47號 Man Yiu Building",22.307635,114.1662706
"均益大廈 3期 B座 十四樓 B5室","Kwan Yick Building Phase 3","Kwan Yick Building Phase 3, 273 Des Voeux Rd W, Sai Ying Pun, Hong Kong",22.2882294,114.1403821
"曉暉花園 1座 3樓 A室","Scenic View","63 Fung Shing St, Hammer Hill, Hong Kong",22.3374096,114.2152818
"鴨巴甸街37-39號 三樓 39號","三 39 号","三 39 号, 37 Aberdeen St, Central, Hong Kong",22.2827789,114.1516805
"軒尼詩道459-465號 七樓 463號","七 463 号","七 463 号, 459-465 Hennessy Road, 459-465 Hennessy Rd, Bowrington, Hong Kong",22.2798906,114.1820712
"益誠樓 6樓 240號(A室)","Yick Shing Mansion","Yick Shing Mansion, 238～240號 Lockhart Rd, Wan Chai, Hong Kong",22.2783077,114.1759179
"金寶樓 8樓 A室","Cambo House","Cambo House, 182-184 Prince Edward Rd W, Prince Edward, Hong Kong",22.3247775,114.1719077
"雲疊花園 6座 21樓 M室",NA,NA,NA,NA
"麥花臣匯 1B座 21樓 B室","MacPherson Place","MacPherson Place, 38 Nelson St, Mong Kok, Hong Kong",22.3187631,114.1729199
"逸瓏灣8 3C座 1樓 C室",NA,NA,NA,NA
"龍門居 車位 1樓 100號",NA,NA,NA,NA
"疊茵庭 車位 基層1樓 79號(I期)",NA,NA,NA,NA
"新都城 2期 3座 5樓 B室",NA,NA,NA,NA
"新都城 1期 4座 31樓 D室",NA,NA,NA,NA
"荃威花園 J座 16樓 7室","Allway Gardens Block J","Allway Gardens Block J, 16 On Yat St, Tsuen King Circuit, Hong Kong",22.3778601,114.1034545
"昇薈 9座 25樓 A室",NA,NA,NA,NA
"運頭塘邨 運亨樓 (5座) 31樓 8室","Wan Tau Tong Estate Block 5 Wan Hang House","Wan Tau Tong Estate Block 5 Wan Hang House, Hiu Wan Rd, Tai Po, Hong Kong",22.4415958,114.1657252
"天富苑 元富閣 (A座) 1樓 3室","Tin Fu Court Block A Yuen Fu House","Tin Fu Court Block A Yuen Fu House, 15 Tin Sau Rd, Tin Shui Wai, Hong Kong",22.4630826,113.9978343
"龍德苑 晉德閣 (A座) 6樓 3室","Lung Tak Court Block A Chun Tak House","52號 Cape Rd, Stanley, Hong Kong",22.2207893,114.2075939
"傲玟 1座 23樓 B室",NA,NA,NA,NA
"薄扶林花園 6座 15樓 B室","Pokfulam Gardens Block 6","Pokfulam Gardens Block 6, 180 Pok Fu Lam Rd, Pok Fu Lam, Hong Kong",22.2572658,114.1374292
"寶星中心 C座 6樓 6室","寶星中心C座","Po Sing Centre Block C, 1號 Ta Chuen Ping St, Kwai Chung, Hong Kong",22.366169,114.136216
"貝沙灣 1期 7座 25樓 B室",NA,NA,NA,NA
"貝沙灣 2期 南岸 8座 39樓 A室","貝沙灣2期8座","38號 Bel-air Ave, Telegraph Bay, Hong Kong",22.256031,114.132203
"安秀苑 A座 29樓 27室",NA,NA,NA,NA
"德田邨 德樂樓 (4座) 6樓 7室","Tak Tin Estate Block 4 Tak Lok House","Tak Tin Estate Block 4 Tak Lok House, Pik Wan Rd, Lam Tin, Hong Kong",22.3092043,114.2393784
"雍明苑 B座 (澤明閣) 21樓 36室",NA,NA,NA,NA
"Double Coast 1期 Double Coast I 3座 11樓 L室",NA,NA,NA,NA
"Double Coast 1期 Double Coast I 3座 15樓 L室",NA,NA,NA,NA
"馬寶閣 21樓 B室",NA,NA,NA,NA
"景業大廈 5樓 9A號",NA,NA,NA,NA
"西營盤渣打銀行大廈 三樓 A室","Standard Chartered Bank Building","4-4a Des Voeux Rd Central, Central, Hong Kong",22.2803829,114.159077
"盈翠半島 1期 5座 27樓 F室","盈翠半島","Hong Kong, Tsing Yi, 盈翠半島",22.3582411,114.1071474
"盈翠半島 1期 5座 27樓 E室","盈翠半島","Hong Kong, Tsing Yi, 盈翠半島",22.3582411,114.1071474
"啟鑽苑 4座 (啟濤閣) 35樓 5室",NA,NA,NA,NA
"維景花園 B座 十七樓 5室","Viking Garden Block B","Viking Garden Block B, 40 Hing Fat St, Causeway Bay, Hong Kong",22.2837824,114.1913326
"丹拿花園 1座 8樓 A室","Tanner Gardens Block 1","Tanner Gardens Block 1, 18 Tanner Rd, North Point, Hong Kong",22.2903239,114.2017501
"連城閣 16樓 A室",NA,NA,NA,NA
"英皇道484號 5樓 前座(A室)",NA,NA,NA,NA
"翔龍灣 3座 31樓 E室","Grand Waterfront Tower 3","Grand Waterfront Tower 3, 38 San Ma Tau St, Ma Tau Kok, Hong Kong",22.3192099,114.1934922
"海茵莊園 2座 36樓 D5室",NA,NA,NA,NA
"油塘中心 7座 6樓 D室",NA,NA,NA,NA
"冠峰園 3座 8樓 C室",NA,NA,NA,NA
"布業大廈 10樓 A室",NA,NA,NA,NA
"啟欣苑 A座 19樓 17室",NA,NA,NA,NA
"八達大廈 8樓 D室",NA,NA,NA,NA
"OMA OMA 1B座 地下 C室",NA,NA,NA,NA
"The Aster 27樓 C室",NA,NA,NA,NA
"南角道44號 二樓 44號(A室)",NA,NA,NA,NA
"Yoho Town 2期 Yoho Midtown 1座 22樓 G室",NA,NA,NA,NA
"康盛花園 5座 15樓 M室","Hong Sing Garden Block 5","Hong Sing Garden Block 5, 1 Po Lam Rd N, Hong Kong",22.3198946,114.2538081
"置富花園 富安苑 (H-3座) 25樓 F室","Chi Fu Fa Yuen Fu On Yuen","Chi Fu Fa Yuen Fu On Yuen, 3 Chi Fu Rd, Pok Fu Lam, Hong Kong",22.255783,114.138935
"星凱．堤岸 1座 48樓 A室",NA,NA,NA,NA
"海逸豪園 4期(IVA) 海逸灣 18座 19樓 G室",NA,NA,NA,NA
"帝堡城 8座 31樓 A室","The Castello Block 8","The Castello Block 8, 69 Siu Lek Yuen Road, Siu Lek Yuen, Hong Kong",22.3832917,114.2156133
"康輝大廈 A座 四樓 A4室","Hong Fai Building Block A","Hong Fai Building Block A, 64-68 Wing Hong St, So Uk, Hong Kong",22.3407732,114.1539447
"黃大仙下邨(一區) 龍豐樓 (2座) 26樓 1室",NA,NA,NA,NA
"沙田第一城 1期 8座 6樓 H室",NA,NA,NA,NA
"怡豐花園 車位 1樓 85號",NA,NA,NA,NA
"康景花園 D座 5樓 1室","Mount Parker Lodge Blk D","Mount Parker Lodge Blk D, 10 Hong Pak Path, Quarry Bay, Hong Kong",22.2818431,114.2127329
"錦暉苑 24樓 19室",NA,NA,NA,NA
"新翠花園 5座 6樓 H室","New Jade Garden","233 Chai Wan Rd, Chai Wan, Hong Kong",22.264079,114.237294
"金獅花園 2期 金富閣 (A座) 五樓 5室",NA,NA,NA,NA
"海翩滙 5座 5樓 B室","The Papillons","21號 Tong Chun St, Tseung Kwan O, Hong Kong",22.3035593,114.2625149
"麗都花園 1座 22樓 A室","Lido Garden Block 1","Lido Garden Block 1, 41-63 Castle Peak Road-Sham Tseng, Sham Tseng, Hong Kong",22.3660934,114.0586031
"幸俊苑 俊賢閣 (B座) 12樓 8室",NA,NA,NA,NA
"Novo Land 3B期 Fiskars 2A座 8樓 A2室",NA,NA,NA,NA
"山麗苑 F座 10樓 7室",NA,NA,NA,NA
"雅麗閣 十五樓 H室","Artland Court","Artland Court, 392 Chai Wan Rd, Chai Wan, Hong Kong",22.2655798,114.2447874
"柏傲灣 2B座 50樓 E室",NA,NA,NA,NA
"Novo Land 1A期 Elverum 1座 8樓 H室",NA,NA,NA,NA
"黃埔花園 1期 金柏苑 1座 5樓 H室",NA,NA,NA,NA
"高雅閣 4樓 F室",NA,NA,NA,NA
"嘉匯 9座 35樓 E室",NA,NA,NA,NA
"昇柏山 20樓 LA室",NA,NA,NA,NA
"恒豐園 2座 5樓 G室","Harvest Garden Block 2","Harvest Garden Block 2, 1 Wing Fat Ln, Tuen Mun, Hong Kong",22.3842609,113.9813167
"柏傲灣 1B座 41樓 D室",NA,NA,NA,NA
"Novo Land 3B期 Fiskars 1座 19樓 A2室",NA,NA,NA,NA
"君匯港 名匯 (3座) 5樓 D室",NA,NA,NA,NA
"美景花園 9座 27樓 E室","明翹匯中原地產青衣美景花園分行","Hong Kong, Tsing Yi, 3樓83號舖 Mayfair Gardens Block 7",22.3445061,114.1075422
"海燕花園 1期 新運路68號 5樓 G室","Swallow Garden","Swallow Garden, 68 San Wan Rd, Fanling, Hong Kong",22.4949749,114.1378871
"The Yoho Hub C期 The Yoho Hub II 6座 26樓 C室",NA,NA,NA,NA
"裕豐洋樓 六樓 F室","豐裕樓","Fung Yue Building, Kau Yuk Rd, Yuen Long, Hong Kong",22.443122,114.0253097
"Grand Yoho 1期 2座 12樓 A室",NA,NA,NA,NA
"柏景灣 車位 地下 115號",NA,NA,NA,NA
"金禧花園 5座 18樓 H室","Grandeur Garden Block 5","Grandeur Garden Block 5, 14 Chik Fai St, Tai Wai, Hong Kong",22.3741313,114.1775702
"鳳輝臺 1 號 四樓 1A號(B室)",NA,NA,NA,NA
"浩明雅苑 18樓 D室",NA,NA,NA,NA
"蔚藍灣畔 5座 31樓 C室","Residence Oasis Tower 5","Residence Oasis Tower 5, 15 Pui Shing Rd, Hang Hau, Hong Kong",22.3155765,114.2651218
"薈蕎 2翼 5樓 C3室",NA,NA,NA,NA
"邁亞美海灣 5座 21樓 E室","迈亚美海湾三座","Miami Beach Towers Block 3, 268號 Wu Chui Rd, Tuen Mun, Hong Kong",22.3721427,113.9691218
"傲玟 1座 16樓 A室",NA,NA,NA,NA
"海日灣II 8座 5樓 F室",NA,NA,NA,NA
"Miami Quay 1期 1座 9樓 B室",NA,NA,NA,NA
"半島豪庭 4座 28樓 E室","Royal Peninsula Block 4","Royal Peninsula Block 4, Hung Hom, Hong Kong",22.3048535,114.184877
"晉名峰 D座 25樓 B室","The Grandville Tower D","The Grandville Tower D, 2 Lok Kwai Path, Fo Tan, Hong Kong",22.4009274,114.1937476
"金毓大廈 6樓 B室",NA,NA,NA,NA
"德雅苑 25樓 21室",NA,NA,NA,NA
"大興花園 2期 6座 21樓 D室","Tai Hing Garden Phase 2 Blk 6","6號 Ho Hing Circuit, Tuen Mun, Hong Kong",22.399127,113.971246
"昌宏大廈 二十三樓 H室","藝承畢業製作公司","Hong Kong, Kwai Chung, Castle Peak Rd - Kwai Chung, 403-413號, Reason Group Tower, 12樓G室",22.3641432,114.1354528
"兆禧苑 安禧閣 (A座) 三十一樓 10室","Siu Hei Court On Hei House","Siu Hei Court On Hei House, 201 Wu Chui Rd, Tuen Mun, Hong Kong",22.3731717,113.9676745
"嘉湖山莊 6期 美湖居 3座 24樓 C室","Maywood Court - Kingswood Villas Block 3","Maywood Court - Kingswood Villas Block 3, 9 Tin Lung Rd, Tin Shui Wai, Hong Kong",22.4612195,114.0051056
"海悅花園 2座 20樓 H室","Serene Garden","77 Tsing King Rd, Tsing Yi, Hong Kong",22.3535452,114.1077969
"康強苑 35樓 2室","Hong Keung Court","Hong Keung Court, 23 Heng Lam St, Lo Fu Ngam, Hong Kong",22.3371978,114.1895689
"山景邨 景樂樓 (6座) 15樓 A6室","Shan King Estate King Mei House","Hong Kong, 鳴琴路屯門第7/8區",22.399818,113.966852
"好發大廈 9樓 E室","Rich Building","Rich Building, 6 Tsing Min Path, San Hui, Hong Kong",22.40373,113.9785132
"錦豐苑 錦蓉閣 (A座) 31樓 13室","Kam Fung Court Block A Kam Yung House","Kam Fung Court Block A Kam Yung House, 638 Sai Sha Rd, Ma On Shan, Hong Kong",22.4246738,114.2260904
"富寧花園 5座 33樓 B室","Fu Ning Garden Block 5","Fu Ning Garden Block 5, 25 Po Ning Rd, Hang Hau, Hong Kong",22.3190052,114.2678753
"藝里坊．1號 16樓 D室",NA,NA,NA,NA
"華敦大廈 A座 7樓 A4室",NA,NA,NA,NA
"安寧花園 5座 9樓 F室","On Ning Garden Block 5","On Ning Garden Block 5, 10 Sheung Ning Rd, Hang Hau, Hong Kong",22.3160735,114.2624072
"囍滙 2期 1座 12樓 H室",NA,NA,NA,NA
"環海．東岸 3樓 J室(T1b)",NA,NA,NA,NA
"澐璟 1座 15樓 B室",NA,NA,NA,NA
"連方 II 25樓 N9室",NA,NA,NA,NA
"連方 II 18樓 N10室",NA,NA,NA,NA
"連方 II 18樓 S5室",NA,NA,NA,NA
"連方 I 11樓 D室",NA,NA,NA,NA
"嘉熙 1座 18樓 A室",NA,NA,NA,NA
"連方 I 21樓 H室",NA,NA,NA,NA
"連方 I 22樓 H室",NA,NA,NA,NA
"南豐新邨 5座 24樓 B室","Nam Fung Sun Chuen Block 5","Nam Fung Sun Chuen Block 5, 40 Greig Road, Quarry Bay, Hong Kong",22.2816468,114.2134493
"御龍山 11座 50樓 D室","The Palazzo Tower 11","The Palazzo Tower 11, 28 Lok King St, Fo Tan, Hong Kong",22.3960179,114.1993471
"愉景灣 5期頤峰 怡山閣 (4座) 8樓 B室",NA,NA,NA,NA
"廣發大廈 五樓 E室(268號)",NA,NA,NA,NA
"時興大廈 2樓 A室",NA,NA,NA,NA
"柏傲灣 2B座 18樓 C室",NA,NA,NA,NA
"浪澄灣 9座 40樓 B室","The Long Beach Tower 9","The Long Beach Tower 9, 8 Hoi Fai Rd, Tai Kok Tsui, Hong Kong",22.3204497,114.1559054
"彌敦大廈 八樓 512號(後座)","Nathan Apartments","Nathan Apartments, 506-512 Nathan Rd, Yau Ma Tei, Hong Kong",22.3122236,114.1710367
"海日灣II 13座 7樓 A室",NA,NA,NA,NA
"天寰 車位 1號 108號",NA,NA,NA,NA
"益發大廈 5樓 11室",NA,NA,NA,NA
"僑英大廈 十五樓 B室","WHITE DAY ROOMS LIMITED","Hong Kong, Quarry Bay, King's Rd, 846號, Mansion Building, 1字樓A、B室",22.289996,114.209096
"Wetland Seasons Bay 3期 6B座 9樓 A8室",NA,NA,NA,NA
"僑英大廈 十四樓 C室","Fok Ying Building","379～381 King's Rd, North Point, Hong Kong",22.2909739,114.1982525
"富雅花園 3座 23樓 K室","Full Art Garden Block 3","Full Art Garden Block 3, Shek Kong, Hong Kong",22.4256962,114.085187
"玉山大廈 6樓 A室","Giok San Building","31～35 Tang Lung St, Bowrington, Hong Kong",22.2791948,114.1823034
"葵麗大廈 11樓 F室","Kwai Lai Building","Kwai Lai Building, 29-45 Shek Yam Rd, Shek Yam, Hong Kong",22.368621,114.1397786
"置富花園 富怡苑 (H-7座) 1樓 H室","Block 1- 7 Chi Fu Fa Yuen; Chi Fu Road","Pok Fu Lam, Hong Kong",22.25595,114.13975
"富家閣 4樓 C室","Wealth Court","Wealth Court, 28 Tsat Tsz Mui Rd, North Point, Hong Kong",22.2906019,114.2013443
"畢架山花園 14座 6樓 D室",NA,NA,NA,NA
"紹恆大廈 五樓 E室","紹恆大廈","Shiu Hang Building, Un Chau St, Cheung Sha Wan, Hong Kong",22.3395916,114.1537388
"清水灣半島 2期 6座 38樓 C室",NA,NA,NA,NA
"欣盛苑 欣耀閣 (E座) 高層 4室","Yan Shing Court Yan Fai House","Hong Kong, 華明路十五號",22.486077,114.139363
"麗城花園 3期 3座 中層 H室","丽城花园三期二座","625號 Castle Peak Rd - Tsuen Wan, Chai Wan Kok, Hong Kong",22.3713714,114.101072
"德福花園 B座 中層 5室",NA,NA,NA,NA
"美居中心 2座 高層 D室","Manor Centre Blk 5","218號 Fuk Wing St, Un Chau, Hong Kong",22.3344825,114.1596788
"愉景灣 3期康慧台 康和閣 中層 C室","Brilliance Court, Hillgrove Village, Discovery Bay","Hillgrove Vill - Discovery Bay Brillance Court, 3 Discovery Bay Rd, Discovery Bay, Hong Kong",22.294395,114.014954
"昇柏山 低層 RD室","The Rise","The Rise, 號, 63 Yau Ma Hom Rd, Tsuen Wan, Hong Kong",22.3712654,114.1329258
"東港城 2座 低層 B室","East Point City","8 Chung Wa Rd, Tseung Kwan O, Hong Kong",22.3169972,114.2654283
"半島豪庭 3座 低層 E室","Royal Peninsula BLK 3","Royal Peninsula Block 3, 8 Hung Lai Rd, Hung Hom Bay, Hong Kong",22.3049517,114.1844053
"聚賢居 1座 中層 A室","Centrestage","Centrestage Tower 1, 108 Hollywood Rd, Sheung Wan, Hong Kong",22.2837076,114.1510558
"The Austin 3A座 中層 B室",NA,NA,NA,NA
"德福花園 K座 高層 3室",NA,NA,NA,NA
"廣明苑 廣寧閣 (F座) 高層 1室","廣明苑：F座（廣寧閣）","Hong Kong, Tseung Kwan O, Po Hong Rd, Kwong Ming Court Kwong Ning House, 1201室",22.3126064,114.2600854
"日出康城 6期 Lp6 3座 中層 G室",NA,NA,NA,NA
"新都城 2期 8座 中層 E室",NA,NA,NA,NA
"旭輝臺 2座 高層 F室","Radiant Towers","Radiant Towers, Tseung Kwan O, Hong Kong",22.323719,114.2548605
"寶華軒 高層 C室","Casa Bella","117 Caine Rd, Central, Hong Kong",22.282763,114.150854
"錦繡花園 L段第五街","Section L 5th St","Section L 5th St, Fairview Park, Hong Kong",22.481755,114.04574
"滿華樓 中層 6室",NA,NA,NA,NA
"新都城大廈 高層 20室",NA,NA,NA,NA
"峻峰花園 C座 高層 6室","Perfect Mount Gardens","1 Po Man St, Shau Kei Wan, Hong Kong",22.278868,114.2290074
"太古城 海天花園 南天閣 (62座) 中層 D室",NA,NA,NA,NA
"藍塘道47-49號 低層 49B室",NA,NA,NA,NA
"君匯港 5座 低層 A室","Harbour Green Tower 5","Harbour Green Tower 5, 8 Sham Mong Rd, Tai Kok Tsui, Hong Kong",22.3222471,114.1593093
"日出康城 10期 LP10 2座 (2B) 中層 C室",NA,NA,NA,NA
"煜明苑 熹明閣 (C座) 高層 7室","煜明苑：C座（熹明閣）","Hong Kong, Hang Hau, Flat 2703, Hei Ming House, Yuk Ming Court, Tseung Kwan O",22.3148276,114.2670636
"The Parkside 1A座 高層 B室",NA,NA,NA,NA
"利奧坊．曉岸 1座 中層 E室",NA,NA,NA,NA
"嘉榮大廈 低層 A室","嘉榮大廈","534～538號 Nathan Rd, Yau Ma Tei, Hong Kong",22.3136581,114.1706939
"Oasis Kai Tak 5座 高層 A室",NA,NA,NA,NA
"葵麗大廈 高層 F室","Kwai Fung Building","196號 Hing Fong Rd, Kwai Chung, Hong Kong",22.359124,114.127412
"維港．星岸 1座 中層 A室",NA,NA,NA,NA
"匯翠台 2座 高層 A室","Greenway Terrace","香港跑馬地連道5-7號匯翠臺 / GREENWAY TERRACE, 5, 7 Link Rd, Happy Valley, Hong Kong",22.2752824,114.1853204
"馬鞍山中心 4座 低層 B室","Ma On Shan Centre Shopping Arcade","1 On Chun Street, Ma On Shan, New Territories, Hong Kong",22.4258737,114.2331456
"雅景臺 4座 中層 E室","Chateau Scenic","12-20 Ma Ying Path, Kau To Shan, Hong Kong",22.4053876,114.2036657
"新葵芳花園 E座 低層 5室","New Kwai Fong Gardens Block E","New Kwai Fong Gardens Block E, 12 Kwai Yi Rd, Kwai Fong, Hong Kong",22.3574317,114.1288033
"天頌苑 頌碧閣 (E座) 中層 6室","Tin Chung Court Block E Chung Pik House","Tin Chung Court Block E Chung Pik House, 3 Tin Wing Rd, Tin Shui Wai, Hong Kong",22.4606123,113.9995302
"綠楊新邨 J座 低層 7室","Luk Yeung Sun Chuen","Luk Yeung Sun Chuen Block S, Wai Tsuen Rd, Tsuen Wan, Hong Kong",22.3740119,114.1186646
"青華苑 華璇閣 (B座) 高層 1室","Wah Suen House (Blk B)","22號 Tsing Chin St, Tsing Yi, Hong Kong",22.3488866,114.0985868
"青華苑 華豐閣 (D座) 低層 8室","Ching Wah Court Block F Wah Cheung House","22號 Tsing Chin St, Tsing Yi, Hong Kong",22.3484761,114.1014635
"海欣花園 2座 中層 E室","Grand Horizon Block 2","Grand Horizon Block 2, Cheung Wan St, Tsing Yi, Hong Kong",22.3526094,114.1092609
"康山花園 6座 低層 D室","康山花园六座","Kornhill Garden Block 6, 1120 King's Rd, Kornhill, Hong Kong",22.285479,114.2166007
"珀麗灣 3期 21座 低層 C室","Park Island Tower 21","8 Pak Lai Rd, Park Island, Hong Kong",22.3520224,114.0600515
"新港城 5期 海濤居 4座 低層 F室",NA,NA,NA,NA
"帝后華庭 3座 低層 F室","Queen's Terrace Tower 3","Queen's Terrace Tower 3, 1 Queen St, Sheung Wan, Hong Kong",22.2870208,114.1476807
"名城 3期 盛世 2座 低層 SA室",NA,NA,NA,NA
"嘉隆苑 嘉昇閣 (A座) 高層 5室","Ka Lung Court Block A Ka Sing House","Kellet Bay, Hong Kong",22.2494103,114.1389964
"環宇海灣 3座 中層 B室","City Point Block 3","City Point Block 3, 48 Tsuen Wan Rd, Tsuen Wan, Hong Kong",22.3646715,114.1142676
"名城 3期 盛世 1座 低層 NB室",NA,NA,NA,NA
"嘉新大樓 中層 B室","Carson Mansion","Carson Mansion, 4 Dung Fat St, Tsuen Wan, Hong Kong",22.3727477,114.1161124
"錦豐苑 錦荷閣 (H座) 中層 17室","Kam Fung Court","Kam Fung Court Block E Kam Kwai House, 638 Sai Sha Rd, Ma On Shan, Hong Kong",22.4223561,114.2250014
"景峰花園 3座 高層 A室","Prime View Garden Commercial Complex","2 King Fung Path, San Hui, Hong Kong",22.4032393,113.9797899
"昇柏山 中層 RE室","The Rise","The Rise, 號, 63 Yau Ma Hom Rd, Tsuen Wan, Hong Kong",22.3712654,114.1329258
"Novo Land 1A期 Elverum 1座 中層 H室",NA,NA,NA,NA
"上水中心 5座 高層 B室","Sheung Shui Centre","3 Chi Cheong Rd, Sheung Shui, Hong Kong",22.5008858,114.1299577
"麗港城 3期 33座 高層 G室","Laguna City Phase 3 Club House","2 S Laguna St, Kwun Tong, Hong Kong",22.305115,114.2282595
"麗港城 1期 8座 中層 E室","麗港城八座","Laguna City Block 8, Laguna St, Laguna City, Hong Kong",22.3065597,114.2265347
"麗港城 1期 8座 中層 F室","Laguna City Block 8","Laguna City Block 8, 25 Laguna St, Laguna City, Hong Kong",22.3065325,114.2265429
"Yoho Town 2期 Yoho Midtown 1座 中層 G室",NA,NA,NA,NA
"太安樓 13樓 51室",NA,NA,NA,NA
"守運樓 16樓 D室",NA,NA,NA,NA
"啟欣苑 B座 25樓 4室",NA,NA,NA,NA
"啟欣苑 B座 9樓 9室",NA,NA,NA,NA
"啟欣苑 A座 31樓 18室",NA,NA,NA,NA
"啟欣苑 A座 24樓 25室",NA,NA,NA,NA
"冠山苑 23樓 8室",NA,NA,NA,NA
"兆翠苑 B座 20樓 7室",NA,NA,NA,NA
"兆翠苑 B座 5樓 4室",NA,NA,NA,NA
"兆翠苑 B座 6樓 5室","兆翠苑B座","26號 Hang Fu St, Tuen Mun, Hong Kong",22.3833931,113.9709399
"安秀苑 A座 29樓 13室",NA,NA,NA,NA
"安秀苑 B座 1樓 13室",NA,NA,NA,NA
"安秀苑 A座 31樓 21室",NA,NA,NA,NA
"安秀苑 B座 11樓 16室",NA,NA,NA,NA
"安秀苑 A座 6樓 1室",NA,NA,NA,NA
"安秀苑 B座 23樓 26室",NA,NA,NA,NA
"安秀苑 A座 17樓 12室",NA,NA,NA,NA
"安秀苑 A座 8樓 4室",NA,NA,NA,NA
"安秀苑 B座 11樓 1室",NA,NA,NA,NA
"翠麗花園 5座 25樓 C室","Tsui Lai Garden Block 5","Tsui Lai Garden Block 5, 9 Fung Nam Rd, Sheung Shui, Hong Kong",22.5079661,114.1282126
"嘉湖山莊 6期 美湖居 2座 30樓 H室","Maywood Court - Kingswood Villas Block 2","Maywood Court - Kingswood Villas Block 2, 9 Tin Lung Rd, Tin Shui Wai, Hong Kong",22.4613361,114.004641
"安豐大廈 5樓 F室","The 5B Private Corner","Hong Kong, Tsuen Wan, Chai Wan Kok St, 38-40號Room B, 5/F Tsuen Tung Factory Building",22.3731325,114.1071044
"嘉湖山莊 7期 景湖居 3座 19樓 A室","Kenswood Court - Kingswood Villas Block 3","Kenswood Court - Kingswood Villas Block 3, 2 Tin Lung Rd, Tin Shui Wai, Hong Kong",22.4600614,114.0074751
"安和園 安寧大廈 七樓 A室","安寧樓","On Ning Building, Yuen Long On Ning Rd, Yuen Long, Hong Kong",22.445952,114.022205
"毓華樓 三樓 E室","Wan Wah Mansion","Shop C1-C2, Wan Wah Mansion, 26 Yuk Wah Cres, Tsz Wan Shan, Hong Kong",22.3467581,114.2029186
"葵祥大廈 16樓 E室","Kwai Cheung Building","103 Wing Fong Rd, Kwai Chung, Hong Kong",22.3599179,114.1262724
"德泰大廈 21樓 K室","Tak Tai Building","Tak Tai Building, 19 Tai Ha St, Kwai Chung, Hong Kong",22.3690331,114.1230799
"大興花園 2期 11座 11樓 F室","Tai Hing Garden Phase 2 Blk 11","11號 Ho Hing Circuit, Tuen Mun, Hong Kong",22.399164,113.972489
"啟欣苑 A座 12樓 3室",NA,NA,NA,NA
"高宏苑 B座 9樓 4室",NA,NA,NA,NA
"海茵莊園 1座 33樓 A1室",NA,NA,NA,NA
"兆麟苑 輝麟閣 (K座) 三十一樓 6室",NA,NA,NA,NA
"昌盛洋樓 十三樓 C室","Cheong Shing Mansion","33～39 Wing Hing St, Causeway Bay, Hong Kong",22.2855452,114.1926885
"冠山苑 23樓 3室",NA,NA,NA,NA
"均益大廈 2期 B座 22樓 B10室",NA,NA,NA,NA
"荔欣苑 荔林閣 (C座) 39樓 10室","Lai Yan Court Block C Lai Lam House","Lai Yan Court Block C Lai Lam House, Lai King Hill Rd, Lai Chi Kok, Hong Kong",22.3433937,114.1369261
"怡樂花園 3座 8樓 A室","Elegance Gardens Blk 3","Elegance Gardens Block 3, King Fung Path, San Hui, Hong Kong",22.4047735,113.9818887
"藍灣半島 8座 33樓 F室","Island Resort Block 8","Island Resort Block 8, 28 Siu Sai Wan Rd, Siu Sai Wan, Hong Kong",22.2670544,114.2508223
"美孚新邨 5期 蘭秀道22-24號 3樓 24號C室",NA,NA,NA,NA
"現崇山 3B座 19樓 A室","香港置業 | 東中九龍 - 現崇山分行","樓12號舖, 九龍黃大仙睦鄰街8號現崇山商場2, Hong Kong",22.340828,114.197249
"海灣花園 4座 36樓 F室","Waterside Plaza Block 4","Waterside Plaza Block 4, 38 Wing Shun St, Tsuen Wan, Hong Kong",22.3635419,114.1145739
"廣林苑 興林閣 (A座) 二十三樓 15室",NA,NA,NA,NA
"啟鑽苑 5座 (啟湖閣) 19樓 5室","Kai Chuen Court","235號 Choi Hung Rd, Tai Hom, Hong Kong",22.3393001,114.2000991
"啟鑽苑 4座 (啟濤閣) 9樓 5室",NA,NA,NA,NA
"啟鑽苑 4座 (啟濤閣) 17樓 5室",NA,NA,NA,NA
"Larchwood 3樓 J室",NA,NA,NA,NA
"曉柏峰 A座 25樓 A4室",NA,NA,NA,NA
"馬頭圍道96號 五樓 96號","五 96 号","五 96 号, 96 Ma Tau Wai Road, 96 Ma Tau Wai Rd, Hok Yuen, Hong Kong",22.3100861,114.1874405
"馬頭圍道96號 七樓 96號","七 96 号","七 96 号, 96 Ma Tau Wai Road, 96 Ma Tau Wai Rd, Hok Yuen, Hong Kong",22.3100861,114.1874405
"馬頭圍道96號 八樓 96號","八 96 号","八 96 号, 96 Ma Tau Wai Road, 96 Ma Tau Wai Rd, Hok Yuen, Hong Kong",22.3100861,114.1874405
"丹拿花園 5座 10樓 C室",NA,NA,NA,NA
"沙田第一城 2期 23座 26樓 E室","City One - Shatin Block 23","City One - Shatin Block 23, 3 Tak Kei St, City One - Shatin, Hong Kong",22.3859347,114.2021304
"名鑽 9樓 E室",NA,NA,NA,NA
"貝沙灣 6期 Bel-Air No. 8 5座 12樓 C室",NA,NA,NA,NA
"Novo Land 3B期 Fiskars 2B座 30樓 F室",NA,NA,NA,NA
"毓華樓 八樓 H室","Wah Lai House","153-155 Po Kong Village Rd, Tsz Wan Shan, Hong Kong",22.3465428,114.2024245
"太湖花園 1期 8座 15樓 G室","Serenity Park Block 1","Serenity Park Block 1, Tai Po Tau Rd, Tai Po Tau, Hong Kong",22.4543661,114.1604936
"祥華邨 祥智樓 1樓 C4室",NA,NA,NA,NA
"德昌大廈 11樓 D室","德昌大廈商場","Tak Cheong Building, Kwai Chung Rd, Kwai Chung, Hong Kong",22.3672988,114.1332523
"海濱南岸 1座 11樓 B室",NA,NA,NA,NA
"浪濤灣 車位 地下 51號",NA,NA,NA,NA
"長安邨 安湖樓 (5座) 4樓 6室","Cheung On Estate Block 5 On Wu House","Cheung On Estate Block 5 On Wu House, 1 Tam Kon Shan Rd, Nga Ying Chau, Hong Kong",22.3609841,114.1044067
"海昌大樓 19樓 C室",NA,NA,NA,NA
"太子道西233號 6樓 B室","6 b","6 b, 233 Prince Edward Rd W, Kadoorie Hill, Hong Kong",22.3253466,114.1767333
"名城 3期 盛世 車位 停車場層 R296號","Festival City I","1 Mei Tin Rd, Tai Wai, Hong Kong",22.3701591,114.175644
"中興樓 三樓 29室",NA,NA,NA,NA
"映灣園 1期 賞濤軒 1座 6樓 G室",NA,NA,NA,NA
"世安樓 2樓 A室","Sai On Building","Sai On Building, 93-95 Belcher's St, Kennedy Town, Hong Kong",22.2828163,114.12877
"南豐廣場 1座 18樓 B室","Nan Fung Plaza Block 1","Nan Fung Plaza Block 1, 8 Pui Shing Rd, Hang Hau, Hong Kong",22.314343,114.2634288
"聚賢逸居 7樓 A室","Westview Height","Westview Heights, 163 Belcher's St, Kennedy Town, Hong Kong",22.2824773,114.1270147
"天盛苑 盛悅閣 (J座) 18樓 5室","Tin Shing Court Block J Shing Yuet House","Tin Shing Court Block J Shing Yuet House, 3 Tin Ching St, Tin Shui Wai, Hong Kong",22.4482329,114.0002736
"維壹 35樓 C室",NA,NA,NA,NA
"御景峰 3樓 F室",NA,NA,NA,NA
"黃埔花園 9期 百合苑 6座 9樓 A室","Lily Mansions, Whampoa Garden","Whampoa Garden Site 9 Block 1, Tak Fung St, Whampoa Garden, Hong Kong",22.303288,114.1894967
"天馬苑 駿飛閣 (C座) 十七樓 4室",NA,NA,NA,NA
"安秀苑 A座 29樓 12室",NA,NA,NA,NA
"海日灣 Court D 1座 6樓 C室",NA,NA,NA,NA
"金禧花園 4座 14樓 E室","Grandeur Garden Block 4","Grandeur Garden Block 4, 14-18 Chik Fai St, Tai Wai, Hong Kong",22.3738909,114.1772603
"維港滙 3期 2座 22樓 C室",NA,NA,NA,NA
"維景灣畔 2期 10座 21樓 A室","Ocean Shores Tower 10","Ocean Shores Tower 10, 88 O King Rd, Tseung Kwan O, Hong Kong",22.3022608,114.2532523
"The Henley 3期 The Henley III 3B座 27樓 F室",NA,NA,NA,NA
"翔龍灣 1座 30樓 F室","Grand Waterfront Tower 1","Grand Waterfront Tower 1, 38 San Ma Tau St, Ma Tau Kok, Hong Kong",22.319385,114.1929349
"Double Coast 1期 Double Coast I 3座 39樓 A室",NA,NA,NA,NA
"傲雲峰 6座 58樓 F室","Sky Tower Tower 6","Sky Tower Tower 6, 38 Sung Wong Toi Rd, Ma Tau Chung, Hong Kong",22.3234742,114.1908315
"黃埔唐樓 C座 十二樓 11室",NA,NA,NA,NA
"麗晶花園 車位 6樓 6087號",NA,NA,NA,NA
"新都城 1期 4座 35樓 A室",NA,NA,NA,NA
"美孚新邨 2期 百老匯街33-35號 19樓 35號D室","Mei Foo Sun Chuen Stage 2","35 Broadway, Mei Foo Sun Chuen, Hong Kong",22.3361707,114.1387287
"Yoho West 1期 2B座 5樓 B7室",NA,NA,NA,NA
"嘉強苑 嘉匯閣 (A座) 二十樓 10室","Ka Keung Court BLK a Ka Wui House","3號 Fu Mei St, Wang Tau Hom, Hong Kong",22.3409352,114.1842882
"荔欣苑 荔影閣 (A座) 2樓 12室","Lai Yan Court Block A Lai Ying House","Lai Yan Court Block A Lai Ying House, 278號 Lai King Hill Rd, Lai Chi Kok, Hong Kong",22.3427703,114.1364522
"衙前圍道90號 二樓 前座",NA,NA,NA,NA
"佳景樓 2樓 A室",NA,NA,NA,NA
"衙前圍道78-80號/南角道26-28號 五樓 B室(80號)",NA,NA,NA,NA
"佳景樓 4樓 C室",NA,NA,NA,NA
"佳景樓 6樓 B室",NA,NA,NA,NA
"銀禧花園 6座 14樓 G室","Jubilee Garden Block 6","Jubilee Garden Block 6, 2-18 Lok King St, Fo Tan, Hong Kong",22.3982303,114.2004585
"仁福大廈 十五樓 A室","Yen Fook Building","120～126號 Second St, Sai Ying Pun, Hong Kong",22.2861248,114.1397101
"李鄭屋邨 道德樓 (4座) 5樓 5室","Lei Cheng Uk Estate Block 5 Lai Yeung House","Hong Kong, 保安道",22.3398144,114.1595443
"德福花園 H座 4樓 3室",NA,NA,NA,NA
"麗晶花園 14座 15樓 B室",NA,NA,NA,NA
"朗賢峯 2A期 1座 10樓 B室",NA,NA,NA,NA
"山市大廈 11樓 B室",NA,NA,NA,NA
"葵涌廣場 3座 30樓 G室","Kwai Chung Plaza","Kwai Chung Plaza Block 3, Kwai Foo Rd, Kwai Fong, Hong Kong",22.358021,114.1279037
"太子道西233號 12樓 B室","12 b","12 b, 233 Prince Edward Rd W, Kadoorie Hill, Hong Kong",22.3253466,114.1767333
"朗賢峯 2A期 1座 7樓 A室",NA,NA,NA,NA
"荃灣中心 瀋陽樓 (19座) 17樓 C室",NA,NA,NA,NA
"榮福中心 車位 地下 14號",NA,NA,NA,NA
"青泰苑 俊泰閣 (F座) 十九樓 7室","Ching Tai Court Chun Tai House","Ching Tai Court Chun Tai House, 8 Tam Kon Shan Rd, Nga Ying Chau, Hong Kong",22.3627171,114.1011551
"天麗苑 24樓 18室",NA,NA,NA,NA
"天麗苑 16樓 3室","Tin Lai Court","11號 Tin Hei St, Tin Shui Wai, Hong Kong",22.4528734,114.0080157
"凱樂苑 A座 (凱碧閣) 32樓 8室",NA,NA,NA,NA
"栢慧豪園 1期 3座 17樓 E室",NA,NA,NA,NA
"珀麗灣 3期 22座 28樓 H室","Park Island Tower 22","Park Island Tower 22, 8 Pak Lai Rd, Park Island, Hong Kong",22.352496,114.0601826
"倚龍山莊 18座 18號 PH-18A複式單位",NA,NA,NA,NA
"淘大花園 2A期 I座 15樓 6室",NA,NA,NA,NA
"Yoho Town 1期 9座 38樓 G室","Yoho Town Tower 1","Yoho Town Tower 1, 8 Yuen Lung St, Yuen Long, Hong Kong",22.4422974,114.0373256
"港灣豪庭 2期 8座 34樓 D室",NA,NA,NA,NA
"悅湖山莊 6座 13樓 F室","Yuet Wu Villa Block 6","Yuet Wu Villa Block 6, 2 Wu Sau St, Tuen Mun, Hong Kong",22.3736369,113.968748
"Kennedy 38 7樓 D室",NA,NA,NA,NA
"德成軒 11樓 C室",NA,NA,NA,NA
"康盛花園 4座 10樓 E室","Hong Sing Gardens","1 Po Lam Rd, Hong Kong",22.3197365,114.2538446
"帝景園 3座 32樓 B室","Dynasty Court Tower 3","Dynasty Court Tower 3, 23 Old Peak Rd, Mid-Levels, Hong Kong",22.2754572,114.153017
"南豐新邨 車位 低層地下1樓 102號",NA,NA,NA,NA
"金沙樓 十二樓 216號",NA,NA,NA,NA
"李鄭屋邨 仁愛樓 (1座) 16樓 11室",NA,NA,NA,NA
"偉華中心 1座 5樓 E室","Wai Wah Centre Block 1","Wai Wah Centre Block 1, 11-17 Sha Tin Centre St, Sha Tin, Hong Kong",22.3806298,114.1869086
"民安大廈 十一樓 85號",NA,NA,NA,NA
"典雅大廈 6樓 B室",NA,NA,NA,NA
"海逸豪園 5期(IVB) 翠堤灣 23座 10樓 D室","Laguna Verde Block 23","Laguna Verde Block 23, 8 Laguna Verde Ave, Laguna Verde, Hong Kong",22.3066999,114.1926562
"海日灣 Court B 2座 2樓 C室",NA,NA,NA,NA
"周氏大廈 7樓 6室","周氏商業中心","282-284號 Sha Tsui Rd, Tsuen Wan, Hong Kong",22.3696442,114.1165024
"健康村 2期 康祥閣 (1A座) 19樓 G室",NA,NA,NA,NA
"美豐花園 A座 19樓 4室","Beautiful Garden Block A","Beautiful Garden Block A, 11 Chui Lok St, Tai Po, Hong Kong",22.4541775,114.1641628
"山水盈 車位 地庫 R081號",NA,NA,NA,NA
"海城洋樓 十一樓 B室","海之戀1座","100號 Tai Ho Rd, Tsuen Wan, Hong Kong",22.3678719,114.110525
"世宙 1座 17樓 H室",NA,NA,NA,NA
"栢慧豪園 1期 3座 9樓 D室",NA,NA,NA,NA
"嘉湖山莊 1期 樂湖居 13座 12樓 A室","Locwood Court - Kingswood Villas Block 13","Locwood Court - Kingswood Villas Block 13, 1 Tin Wu Rd, Tin Shui Wai, Hong Kong",22.4531722,114.0000917
"荃灣中心 貴陽樓 (13座) 3樓 F室","Tsuen Wan Centre Kweiyang House","Tsuen Wan Centre Kweiyang House, 90 Tsuen King Circuit, Hong Kong",22.3787854,114.1083783
"屯門市廣場 3期 8座 16樓 L室",NA,NA,NA,NA
"凱滙 2期 5座 中層 L室",NA,NA,NA,NA
"Diva 高層 A室","Diva","137, Hoi Shing Building, 133, 135, 139 Electric Rd, Causeway Bay, Hong Kong",22.286097,114.191267
"新都城 2期 3座 低層 B室",NA,NA,NA,NA
"峻瀅 II 3座 高層 D室",NA,NA,NA,NA
"嘉湖山莊 7期 景湖居 11座 中層 C室","Kenswood Court - Kingswood Villas Block 11","Kenswood Court - Kingswood Villas Block 11, 2 Tin Lung Rd, Tin Shui Wai, Hong Kong",22.4583942,114.0063152
"金獅花園 2期 金貴閣 (B座) 低層 4室","Golden Lion Garden Phase 2 Block B Golden Mascot Court","Golden Lion Garden Phase 2 Block B Golden Mascot Court, 1-3 Kak Tin St, Tai Wai, Hong Kong",22.3675119,114.1814867
"映灣園 1期 賞濤軒 2座 高層 G室",NA,NA,NA,NA
"天晉 天晉 2座 低層 C室","The Wings Block 2","The Wings Block 2, Tseung Kwan O, Hong Kong",22.3076691,114.2593425
"雲地利台 B座 低層 3室","Ventris Place Block B","Ventris Place Block B, 19-23B Ventris Rd, Happy Valley, Hong Kong",22.2712918,114.1856666
"榮慧苑 低層 A室","Vivian’s Court","Vivian's Court, 75 Blue Pool Rd, Happy Valley, Hong Kong",22.2652356,114.1891309
"康怡花園 D座 (1-8室) 低層 5室",NA,NA,NA,NA
"康怡花園 A座 (1-8室) 高層 8室","康山花园八座","Kornhill Garden Block 8, 1124號 King's Rd, Kornhill, Hong Kong",22.2851103,114.216935
"康景花園 C座 低層 2室","康山花园二座","Kornhill Garden Block 2, 1112號 King's Rd, Quarry Bay, Hong Kong",22.2853663,114.2154027
"利奧坊．曉岸 1座 高層 L室",NA,NA,NA,NA
"譽．港灣 2A座 低層 A室",NA,NA,NA,NA
"花園城 3期 雅蘭苑 (B座) 高層 F室",NA,NA,NA,NA
"麗港城 4期 22座 低層 E室",NA,NA,NA,NA
"維港灣 3座 高層 F室","Island Harbourview Block 3","Island Harbourview Block 3, 11 Hoi Fai Rd, Tai Kok Tsui, Hong Kong",22.3192605,114.1572552
"匯景花園 10座 中層 H室","Sceneway Garden Block 10","Sceneway Garden Block 10, 8 Sceneway Rd, Sceneway Garden, Hong Kong",22.3060764,114.233454
"啟泰苑 啟康閣 (C座) 高層 3室","Kai Tai Court Block C Kai Hong House","28號 Kai Yip Rd, Kowloon Bay, Hong Kong",22.3281342,114.2112584
"港灣豪庭 2期 8座 高層 D室",NA,NA,NA,NA
"麗港城 2期 27座 高層 B室","Garden of Laguna City Phase 2","12 e, Laguna St E, Laguna City, Hong Kong",22.3068466,114.2294486
"曉暉花園 1座 低層 A室","Scenic View","63 Fung Shing St, Hammer Hill, Hong Kong",22.3374096,114.2152818
"君傲灣 1座 低層 G室","The Grandiose","9 Tong Chun St, Tseung Kwan O, Hong Kong",22.3090272,114.2616214
"維港灣 5座 低層 F室","Island Harbourview Block 5","Island Harbourview Block 5, 11 Hoi Fai Rd, Tai Kok Tsui, Hong Kong",22.3188448,114.1572424
"上嵐 低層 G室","中原地產 屯門御半山分行 Centaline Property Tuen Mun Mount Regency Branch","Hong Kong, Tuen Mun, King Fung Path, 2號, Prime View Garden Block 3, 地下G1舖",22.4028335,113.9801463
"弦海 中層 S室","The Esplanade","101號 Yip Wong Rd, Tuen Mun, Hong Kong",22.3864777,113.968837
"美孚新邨 3期 百老匯街68-70號 高層 68號B室",NA,NA,NA,NA
"雅景臺 3座 高層 C室","Park Belvedere Block 3","Park Belvedere Block 3, 188號 Ma On Shan Rd, Ma On Shan, Hong Kong",22.421467,114.2330442
"銀湖．天峰 6座 低層 E室","Lake Silver Tower 6","Lake Silver Tower 6, 599 Sai Sha Rd, Lake Silver, Hong Kong",22.4289496,114.2447615
"美孚新邨 1期 百老匯街15-17號 高層 17號B室",NA,NA,NA,NA
"駿景園 2期 10座 低層 B室",NA,NA,NA,NA
"青泰苑 通泰閣 (D座) 低層 5室",NA,NA,NA,NA
"曉峰園 6座 低層 A室","Mount Haven Block 6","Mount Haven Block 6, 3號 Liu To Rd, Tsing Yi, Hong Kong",22.3527821,114.095437
"維港灣 6座 高層 E室","Island Harbourview Block 6","Island Harbourview Block 6, 11 Hoi Fai Rd, Tai Kok Tsui, Hong Kong",22.318496,114.1572424
"瓏門 1期 2座 低層 E室",NA,NA,NA,NA
"海濱南岸 5座 高層 C室","Harbour Place Block 5","Harbour Place Block 5, 8 Oi King St, Hung Hom, Hong Kong",22.3033333,114.1862239
"粉嶺名都 嘉麗閣 (7座) 低層 A室","花都廣場第7座","88號 Pak Wo Rd, Fanling, Hong Kong",22.4854142,114.1417649
"上水名都 巴黎閣 (3座) 低層 D室","Sheung Shui Town Centre Paris Court","Sheung Shui Town Centre Paris Court, 9 Chi Cheong Rd, Sheung Shui, Hong Kong",22.5009463,114.1315105
"沙田第一城 5期 51座 中層 F室","City One - Shatin Block 51","City One - Shatin Block 51, 1 Tak Yi St, City One - Shatin, Hong Kong",22.3851206,114.2023161
"葵賢苑 葵義閣 (A座) 高層 1室","葵賢苑：A座（葵義閣）","Kwai Yin Court Block A Kwai Yee House, 43號 Tai Ha St, Kwai Chung, Hong Kong",22.3700298,114.1254721
"盈翠半島 2期 1座 低層 D室",NA,NA,NA,NA
"新峰花園 4期 御峰豪園 28座 高層 D室","G.D.V. Classical Gardens","Grand Dynasty View Block 29, 9 Ma Wo Rd, Tai Po, Hong Kong",22.4406404,114.161239
"東堤灣畔 2期 6座 中層 C室","中原地產東堤灣畔分行","Hong Kong, Tung Chung Crescent, 大嶼山東涌, 东涌第6座地下10號舖",22.288869,113.93966
"天晉 天晉 2座 低層 E室","The Wings Block 2","The Wings Block 2, Tseung Kwan O, Hong Kong",22.3076691,114.2593425
"樂聲大廈 A座 低層 3室",NA,NA,NA,NA
"置樂花園 樂民苑 (1座) 低層 B室","樂民苑","18號 Tsing Hoi Circuit, Tuen Mun, Hong Kong",22.3877784,113.9797391
"羅便臣道80號 1座 低層 B室",NA,NA,NA,NA
"順隆大廈 中層 A室","順發樓","Hong Kong, 文咸東街6～8",22.2853829,114.1525037
"囍滙 2期 3座 低層 K室",NA,NA,NA,NA
"荃灣中心 漢陽樓 (12座) 中層 D室","Tsuen Wan Centre Hangyang House","Tsuen Wan Centre Hangyang House, 88 Tsuen King Circuit, Hong Kong",22.3788135,114.108654
"映日灣 1座 高層 H室",NA,NA,NA,NA
"慧景軒 1座 中層 B室","Vianni Cove Tower 1","Vianni Cove Tower 1, Tin Shui Wai, Hong Kong",22.4669773,114.0036383
"太古城 星輝台 恆星閣 (46座) 中層 E室","Taikoo Shing, Shing Fai Terrace Kam Sing Mansion","Taikoo Shing, Shing Fai Terrace Kam Sing Mansion, Quarry Bay, Hong Kong",22.2866975,114.2187656
"美城苑 逸城閣 (B座) 中層 1室","Mei Shing Court Yat Shing House","34號 Mei Tin Rd, Tai Wai, Hong Kong",22.3793818,114.1746037
"昇薈 10座 高層 G室","The Visionary Tower 10","The Visionary Tower 10, Ying Hei Rd, Tung Chung, Hong Kong",22.2951047,113.9500686
"大興花園 2期 5座 低層 C室","大興花園二期五座","Tai Hing Garden Phase 2 Block 5, 5號 Ho Hing Circuit, Tuen Mun, Hong Kong",22.3993524,113.9707266
"錦泰苑 錦邦閣 (B座) 高層 5室","Kam Tai Court Block B Kam Pong House","Hong Kong, 馬鞍山路",22.4089637,114.2211449
"囍逸 2座 高層 D室",NA,NA,NA,NA
"麗港城 3期 36座 低層 B室","Laguna City Block 36","Laguna City Block 36, 7 S Laguna St, Laguna City, Hong Kong",22.3046758,114.2280657
"新元朗中心 4座 高層 G室",NA,NA,NA,NA
"朗城滙 2座 低層 J室",NA,NA,NA,NA
"瓏璽 8座 低層 A室","Imperial Cullinan Tower 8 Imperial Seacoast","Imperial Cullinan Tower 8 Imperial Seacoast, 10 Hoi Fai Rd, Tai Kok Tsui, Hong Kong",22.3186023,114.1564296
"朗屏8號 2座 高層 C室","The Spectra","8號 Kwong Yip St, Yuen Long, Hong Kong",22.4485768,114.0267809
"朗屏8號 5座 中層 H室","The Spectra","8號 Kwong Yip St, Yuen Long, Hong Kong",22.4485768,114.0267809
"穗禾苑 詠興閣 (J座) 29樓 1室","Sui Wo Court Block J Wing Hing House","Hong Kong, 穗禾路10號沙田市地段43地段",22.3923324,114.1932379
"穗禾苑 詠興閣 (J座) 29樓 2室","Sui Wo Court Block J Wing Hing House","Hong Kong, 穗禾路10號沙田市地段43地段",22.3923324,114.1932379
"杏花邨 8座 11樓 8室","Heng Fa Chuen Block 8","Heng Fa Chuen Block 8, 100 Shing Tai Rd, Pak Sha Wan, Hong Kong",22.27669,114.2386318
"堅城中心 25樓 D室",NA,NA,NA,NA
"福英大廈 15樓 D室",NA,NA,NA,NA
"鴻發大樓 三樓 B室(2室)",NA,NA,NA,NA
"啟欣苑 A座 12樓 19室",NA,NA,NA,NA
"寶馬山花園 1期 1座 8樓 A室",NA,NA,NA,NA
"啟欣苑 A座 15樓 11室",NA,NA,NA,NA
"啟欣苑 B座 11樓 12室",NA,NA,NA,NA
"啟欣苑 B座 34樓 14室",NA,NA,NA,NA
"啟欣苑 B座 10樓 16室",NA,NA,NA,NA
"昭明苑 9樓 5室",NA,NA,NA,NA
"啟欣苑 A座 20樓 26室",NA,NA,NA,NA
"啟欣苑 B座 37樓 6室",NA,NA,NA,NA
"啟欣苑 A座 37樓 1室",NA,NA,NA,NA
"啟欣苑 A座 28樓 4室",NA,NA,NA,NA
"啟欣苑 B座 2樓 15室",NA,NA,NA,NA
"啟欣苑 A座 33樓 1室",NA,NA,NA,NA
"啟欣苑 A座 37樓 22室",NA,NA,NA,NA
"昭明苑 4樓 10室",NA,NA,NA,NA
"泰峯 2B座 35樓 E室",NA,NA,NA,NA
"太古城 金殿台 唐宮閣 (19座) 9樓 B室",NA,NA,NA,NA
"龍蟠苑 龍璋閣 (E座) 十五樓 9室","Lung Poon Court Lung Cheung House","Lung Poon Court Lung Cheung House, 8 Lung Poon St, Tai Hom, Hong Kong",22.3420318,114.1998315
"雲海 1期 Sandalwood Court 1座 8樓 D室",NA,NA,NA,NA
"泓景臺 3期 5座 50樓 B室",NA,NA,NA,NA
"新峰花園 2期 6座 3樓 D室",NA,NA,NA,NA
"Wetland Seasons Park 2期 15座 6樓 A1室",NA,NA,NA,NA
"南浪海灣 5座 37樓 C室","Nerine Cove Block 5","Nerine Cove Block 5, 23 Hang Fu St, Tuen Mun, Hong Kong",22.3829723,113.9719339
"南豐新邨 8座 25樓 E室","Nam Fung Sun Chuen Block 8","Nam Fung Sun Chuen Block 8, 23 Greig Cres, Kornhill, Hong Kong",22.2815835,114.214671
"景怡峰 10樓 G室","Gardenia","Hong Kong, Tong Mi, Sai Yeung Choi St N, 468號深水埗西洋菜北街468號 Gardenia",22.3303111,114.1667896
"The Haddon 15樓 J室",NA,NA,NA,NA
"都會駅 2期 城中駅 10座 9樓 H室",NA,NA,NA,NA
"淘大花園 3期 P座 25樓 3室",NA,NA,NA,NA
"樂雅苑 雅平閣 (F座) 十六樓 1室",NA,NA,NA,NA
"林海山城 11座","Villa Lucca","36 Lo Fai Rd, Ting Kok, Hong Kong",22.4625128,114.1974501
"翠濤閣 1座 6樓 D室","Greenview Court","Greenview Court Block 1, Castle Peak Rd - Tsuen Wan, Tsuen Wan, Hong Kong",22.3702887,114.0984978
"天瀧 7座 9樓 A室",NA,NA,NA,NA
"安寧花園 2座 12樓 J室","On Ning Garden Block 2","On Ning Garden Block 2, 10 Sheung Ning Rd, Hang Hau, Hong Kong",22.3159989,114.2634288
"打鼓嶺道80號 八樓 80號","八 80 号","八 80 号, 80 Tak Ku Ling Rd, Kowloon City, Hong Kong",22.330284,114.191691
"藍天海岸 1期 3座 35樓 E室","Coastal Skyline Tower 3","Coastal Skyline Tower 3, 12 Tung Chung Waterfront Rd, Coastal Skyline, Hong Kong",22.291115,113.9459795
"迎海 1期 車位 地庫 R128號","Double Cove Phase 1 Car Park (Area D)","Double Cove, Hong Kong",22.4320071,114.2419183
"嘉薈軒 36樓 2室","J Residence","J Residence, 60 Johnston Rd, Wan Chai, Hong Kong",22.2762404,114.1711296
"麟祥街15號 8樓 15號","8 15 号","8 15 号, 15 Lun Cheung St, Ma Tau Kok, Hong Kong",22.3216168,114.191792
"宏豐大廈 14樓 B室",NA,NA,NA,NA
"冠奇大廈 七樓 8室",NA,NA,NA,NA
"迎濤灣 1座 (A座) 31樓 H室","Marbella Tower 1","Marbella Tower 1, 23 On Chun St, Ma On Shan, Hong Kong",22.4253405,114.2272777
"順緻苑 順輝閣 (C座) 十二樓 8室","Shun Chi Court Shun Fai House","Shun Chi Court Shun Fai House, 4 Shun Chi St, Cha Liu Au, Hong Kong",22.3317551,114.2266508
"帝庭豪園 2座 16樓 E室","Majestic Park","Majestic Park Block 1, 11號 Farm Rd, Kau Pui Lung, Hong Kong",22.321188,114.1867968
"深灣軒 2座 17樓 E室","Sham Wan Towers Tower 2","Sham Wan Towers Tower 2, 3 Ap Lei Chau Dr, Ap Lei Chau, Hong Kong",22.2438671,114.158659
"漾日居 車位 2樓 256號",NA,NA,NA,NA
"百佳閣 六樓 A室","Parker's Court","Parker's Court, Fort St, North Point, Hong Kong",22.289949,114.1985236
"銀蔚苑 14樓 4室",NA,NA,NA,NA
"華景園 3座 23樓 B室",NA,NA,NA,NA
"建安大廈 十一樓 D室","建安大廈","Kin On Building, Camp St, Lei Cheng Uk, Hong Kong",22.3357666,114.1612649
"曉峰園 5座 19樓 H室","Mount Haven Block 5","Mount Haven Block 5, Liu To Rd, Tsing Yi, Hong Kong",22.3534136,114.0955576
"The Henley 2期 The Henley II 1座 29樓 A室",NA,NA,NA,NA
"大埔中心 1期 2座 12樓 H室",NA,NA,NA,NA
"名城 3期 盛世 1座 7樓 SA室",NA,NA,NA,NA
"朗逸峰 1期 車位 5樓 P140號","The Cairnhill Block 17","The Cairnhill Block 17, 108 Rte Twisk, Tsuen Wan, Hong Kong",22.383627,114.111164
"Novo Land 3B期 Fiskars 2B座 20樓 B室",NA,NA,NA,NA
"灝景灣 1期 1座 38樓 C室","Villa Esplanada Block 1","Villa Esplanada Block 1, 8 Nga Ying Chau St, Nga Ying Chau, Hong Kong",22.3617242,114.1058003
"德威大廈 (一期及二期) 八樓 B室(18號)","Tak Wai Mansion","Tak Wai Mansion, 14-20A Man Fuk Rd, Ho Man Tin, Hong Kong",22.3193507,114.1778178
"荃灣中心 重慶樓 (6座) 26樓 G室","Tsuen Wan Centre Chungking House","Tsuen Wan Centre Chungking House, 95 Tsuen King Circuit, Hong Kong",22.3779395,114.1075756
"仁信大廈 7樓 C室",NA,NA,NA,NA
"荃錦中心 2座 32樓 D室","32 d","32 d, Tsuen Kam Centre Block 2, 300 Castle Peak Rd - Tsuen Wan, Tsuen Wan, Hong Kong",22.3741822,114.1152071
"翡翠花園 車位 1樓 130號(北)",NA,NA,NA,NA
"文苑樓 十三樓 10室(16號)","Man Yuen Building","Man Yuen Building, 2-24 Man Yuen St, Jordan, Hong Kong",22.3075849,114.1668694
"太子臺 13 號 三樓 B室","三 b","三 b, 13 Prince's Terrace, 13 Prince's Terrace, Mid-Levels, Hong Kong",22.2811148,114.1517528
"峻峰花園 C座 22樓 6室",NA,NA,NA,NA
"溱柏 10座 26樓 H室",NA,NA,NA,NA
"南豐新邨 7座 20樓 B室","Nam Fung Sun Chuen Block 7","Nam Fung Sun Chuen Block 7, 25 Greig Cres, Kornhill, Hong Kong",22.2816064,114.2142928
"榮高樓 七樓 C室(42號)","Wingco Mansion","Wingco Mansion, Soy St, Mong Kok, Hong Kong",22.316585,114.170938
"樂信臺 3座 14樓 C室","Robinson Heights Block 3","Robinson Heights Block 3, 8 Robinson Rd, Mid-Levels, Hong Kong",22.279469,114.1533876
"保基大樓 十一樓 3室",NA,NA,NA,NA
"愉景灣 1期碧濤海馬徑 海馬徑16號",NA,NA,NA,NA
"新利大廈 13樓 D室",NA,NA,NA,NA
"滙都 1期 滙都 I 3座 12樓 A08室",NA,NA,NA,NA
"滙都 2期 滙都 II 6座 2樓 A07室",NA,NA,NA,NA
"滙都 2期 滙都 II 6座 5樓 A01室",NA,NA,NA,NA
"康怡花園 K座 (1-8室) 18樓 1室","Kornhill Block E","Kornhill Block E, 15 Hong Shing St, Kornhill, Hong Kong",22.2805652,114.2157196
"匯景花園 車位 5樓 98號",NA,NA,NA,NA
"嘉湖山莊 1期 樂湖居 14座 17樓 C室","Locwood Court - Kingswood Villas Block 14","Locwood Court - Kingswood Villas Block 14, 1 Tin Wu Rd, Tin Shui Wai, Hong Kong",22.4535205,114.0002271
"華都花園 2座 28樓 H室","Waldorf Garden Shopping Centre","1號 Tuen Lee St, Tuen Mun, Hong Kong",22.391821,113.9780511
"康樂園 第二十四街 32A號","32B Hong Lok Yuen 24th St","32B Hong Lok Yuen 24th St, Hong Lok Yuen, Hong Kong",22.4645871,114.1593441
"葡萄園 1期 瑪歌大道 洋房82",NA,NA,NA,NA
"迎海 2期 迎海‧星灣 21座 31樓 E室",NA,NA,NA,NA
"珀麗灣 5期 29座 18樓 H室","Park Island Tower 29","Park Island Tower 29, 8 Pak Lai Rd, Park Island, Hong Kong",22.3542988,114.0609259
"聚賢居 2座 31樓 A室",NA,NA,NA,NA
"文豪花園 1樓 C室",NA,NA,NA,NA
"現崇山 3A座 22樓 D室","Lionsrise Tower 3a","Lionsrise Tower 3a, 8 Muk Lun St, Chuk Un, Hong Kong",22.3407377,114.1967232
"朗濤 3座 地下 B室",NA,NA,NA,NA
"半島豪庭 5座 9樓 B室","Royal Peninsula Block 5","Royal Peninsula Block 5, Hung Hom Bay, Hong Kong",22.3045916,114.1851557
"悅海華庭 2座 16樓 F室","Marina Habitat","Yuet Hoi St, Ap Lei Chau, Hong Kong",22.2440787,114.1543484
"太古城 海景花園(東) 車位 2樓 30號(2-6)",NA,NA,NA,NA
"荃灣中心 杭州樓 (3座) 28樓 C室",NA,NA,NA,NA
"碧堤半島 3期 3座 49樓 B室","Bellagio Mall","33 Castle Peak Road-Sham Tseng, Sham Tseng, Hong Kong",22.3672773,114.0615465
"灣景街16號 五樓","五","五, 16 Wan King Path, Sai Kung, Hong Kong",22.381027,114.271688
"蟠龍道9號 二樓 9B號","二 9b","二 9b, 9 Broom Road, 9 Broom Rd, Happy Valley, Hong Kong",22.264122,114.1879235
"彩蒲苑 彩晶閣 (B座) 十四樓 16室","Choi Po Court Choi Ching House","Choi Po Court Choi Ching House, 2 Choi Yuen Rd, Sheung Shui, Hong Kong",22.5022275,114.1246592
"新圍苑 新珮閣 (F座) 七樓 10室",NA,NA,NA,NA
"One Soho 25樓 A7室",NA,NA,NA,NA
"豪景花園 1期 車位 3樓 558號",NA,NA,NA,NA
"怡寶洋樓 十樓 A室","Delightful Manson","Delightful Manson, Fort St, North Point, Hong Kong",22.2899064,114.1983088
"銀湖．天峰 1座 12樓 D室","Lake Silver Tower 1","Lake Silver Tower 1, 599 Sai Sha Rd, Lake Silver, Hong Kong",22.4286493,114.2429508
"歌和台 地下 2E號","Cornwall Terrace","Cornwall Terrace, 2E-2H Cornwall St, Beacon Hill, Hong Kong",22.3403053,114.1784678
"Finnie 17樓 B室","b","b, Tak Fat Building, 11-17 Finnie St, Quarry Bay, Hong Kong",22.2888375,114.2102388
"101 Kings Road 6樓 L室","6 l","6 l, 101 King's Road, 101 King's Rd, Causeway Bay, Hong Kong",22.28716,114.1925112
"101 Kings Road 16樓 F室","16 f","16 f, 101 King's Road, 101 King's Rd, Causeway Bay, Hong Kong",22.28716,114.1925112
"耀星華庭 23樓 D室",NA,NA,NA,NA
"君傲灣 3座 56樓 E室","The Grandiose Tower 3","The Grandiose Tower 3, 9 Tong Chun St, Tseung Kwan O, Hong Kong",22.308275,114.2615714
"黃金海灣 1期 意嵐 5B座 26樓 K室",NA,NA,NA,NA
"縉皇居 1座 8樓 B室",NA,NA,NA,NA
"南灣 6座 30樓 A室","JEP by Involtini","Hong Kong, Tuen Mun, Eight Regency, 8, Leung Tak St, Tuen MunShop G05",22.407544,113.9674402
"啟欣苑 B座 8樓 7室",NA,NA,NA,NA
"東港城 8座 15樓 D室","中原地產-東港城分行","Hong Kong, Tseung Kwan O, Chung Wa Rd, 8號東港城2樓210舖",22.3163658,114.2652397
"日出康城 5期A Malibu 3B座 35樓 A室",NA,NA,NA,NA
"麗港城 2期 26座 4樓 F室","Laguna City BLK 26","12號 Laguna St E, Sai Tso Wan, Hong Kong",22.3068438,114.2293483
"聽濤雅苑 車位 1樓 80號",NA,NA,NA,NA
"珀麗灣 3期 19座 31樓 B室","Park Island Tower 19","Park Island Tower 19, 8 Pak Lai Rd, Park Island, Hong Kong",22.3515134,114.0597671
"維景灣畔 2期 10座 46樓 D室","Ocean Shores Tower 10","Ocean Shores Tower 10, 88 O King Rd, Tseung Kwan O, Hong Kong",22.3022608,114.2532523
"杏花邨 車位 地下(停車場大廈) P17號","Paradise Mall Car Park","100 Shing Tai Rd, Pak Sha Wan, Hong Kong",22.2779843,114.2390564
"太古城 海景花園(東) 春櫻閣 (43座) 27樓 B室",NA,NA,NA,NA
"宏豐大廈 浙江街31號 十四樓 A室",NA,NA,NA,NA
"傲雲峰 7座 20樓 D室","Sky Tower Tower 7","Sky Tower Tower 7, 38 Sung Wong Toi Rd, Ma Tau Chung, Hong Kong",22.3233479,114.1911197
"采頤花園 8座 7樓 G室",NA,NA,NA,NA
"彩峰苑 四樓 11室",NA,NA,NA,NA
"匯豪山 16樓 F室",NA,NA,NA,NA
"雋睿 1座 7樓 C室",NA,NA,NA,NA
"愉景灣 4期蘅峰蘅安徑 彩暉閣 10樓 A室",NA,NA,NA,NA
"杏花邨 47座 21樓 1室","Heng Fa Chuen Block 47","Heng Fa Chuen Block 47, 100 Shing Tai Rd, Pak Sha Wan, Hong Kong",22.2761158,114.241302
"海茵莊園 2座 31樓 B5室",NA,NA,NA,NA
"朗庭園 車位 1樓 41號",NA,NA,NA,NA
"上源 3A座 3樓 A室",NA,NA,NA,NA
"好運中心 椰林閣 (B2座) 9樓 F室","Lucky Plaza Yae Lam Court","Lucky Plaza Yae Lam Court, 1-15 Wang Pok St, Sha Tin, Hong Kong",22.3833949,114.1907751
"海茵莊園 2座 23樓 B6室",NA,NA,NA,NA
"天平邨 天明樓 (4座) 10樓 10室","Tin Ping Estate Block 8 Tin Long House","Hong Kong, 天平路",22.5026645,114.1342919
"龍翔閣 三樓 G室","龍翔閣","Lung Cheung Court, Lung Kong Rd, Kowloon City, Hong Kong",22.329381,114.190286
"龍翔閣 五樓 D室","龍翔閣","Lung Cheung Court, Lung Kong Rd, Kowloon City, Hong Kong",22.329381,114.190286
"龍翔閣 六樓 D室","龍翔閣","Lung Cheung Court, Lung Kong Rd, Kowloon City, Hong Kong",22.329381,114.190286
"錦暉苑 19樓 14室",NA,NA,NA,NA
"駿景園 1期 1座 29樓 D室","Royal Ascot Block 1","Royal Ascot Block 1, 1 Tsun King Rd, Royal Ascot, Hong Kong",22.4021971,114.2036512
"良景邨 良賢樓 (8座) 16樓 13室","Leung King Estate Leung Yin House","31號 Tin King Rd, Tuen Mun, Hong Kong",22.408183,113.963784
"聚龍閣 14樓 C室",NA,NA,NA,NA
"天賦海灣 1期 19座 6樓 C室","Providence Bay","5 Fo Chun Rd, Providence Bay, Hong Kong",22.4335905,114.2025907
"錦豐苑 錦萱閣 (F座) 36樓 3室","Kam Fung Court Block F Kam Huen House","Kam Fung Court Block F Kam Huen House, 638 Sai Sha Rd, Ma On Shan, Hong Kong",22.42187,114.2248085
"仁寶大廈 8樓 J室","Ample Building Block East","Ample Building Block East, 3 Woh Chai St, Shek Kip Mei, Hong Kong",22.3313207,114.1702007
"美寧中心 A座 四樓 A7室",NA,NA,NA,NA
"怡閣苑 怡秀閣 (G座) 十一樓 1室","Yee Kok Court Yee Sau House","Yee Kok Court Yee Sau House, 329-343 Cheung Sha Wan Rd, Sham Shui Po, Hong Kong",22.3330754,114.158659
"聯盛大廈 鴻運閣 四樓 11室","United Building Hung Wen Court","United Building Hung Wen Court, Wu Kwong St, Hung Hom, Hong Kong",22.3057733,114.186089
"康田苑 祈康閣 (C座) 二十七樓 2室",NA,NA,NA,NA
"帝欣苑 2期 31座 4樓 A室",NA,NA,NA,NA
"幸福樓 三期 二樓 B3室","幸福樓","1 Kei Lun Path, San Hui, Hong Kong",22.3965409,113.9772466
"飛揚 2期 5座 3樓 D室",NA,NA,NA,NA
"星港大廈 十七樓 C室","星港物業","Hong Kong, 香港",22.4325698,114.0173805
"新港城 4期 J座 22樓 4室",NA,NA,NA,NA
"嘉兆臺 1座 17樓 D室","The Grand Panorama Block 1","The Grand Panorama Block 1, 10 Robinson Rd, Mid-Levels, Hong Kong",22.2796358,114.1531551
"啟欣苑 A座 8樓 23室",NA,NA,NA,NA
"嘉碧苑 7座","Grenbelle Garden Block 7","Grenbelle Garden Block 7, 25 Shouson Hill Rd, Deep Water Bay, Hong Kong",22.2505866,114.1812893
"連方 II 15樓 N3室",NA,NA,NA,NA
"連方 II 17樓 N3室",NA,NA,NA,NA
"連方 II 5樓 N10室",NA,NA,NA,NA
"恆信園 6期 3樓 B室","Harrison Court","Harrison Court Phase 3, 7 Man Wan Rd, Ho Man Tin, Hong Kong",22.318833,114.177849
"擎天半島 1期 6座 25樓 F室",NA,NA,NA,NA
"置富花園 富昇苑 (H-13座) 15樓 C室",NA,NA,NA,NA
"天馬苑 駿安閣 (D座) 二十一樓 4室",NA,NA,NA,NA
"匯景花園 9座 15樓 E室","Sceneway Garden Block 9","Sceneway Garden Block 9, 8 Sceneway Rd, Sceneway Garden, Hong Kong",22.3058291,114.2336398
"華景山莊 車位 2樓(南) 103號",NA,NA,NA,NA
"羅便臣道80號 2座 39樓 B室",NA,NA,NA,NA
"松栢樓 三樓 B室","Chung Pak Lau","28號 Tai Wai Rd, Tai Wai, Hong Kong",22.375464,114.17779
"海璇 2B-3期 海璇 II 1座 11樓 B室",NA,NA,NA,NA
"浪澄灣 8座 50樓 C室","The Long Beach Tower 8","The Long Beach Tower 8, 8 Hoi Fai Rd, Tai Kok Tsui, Hong Kong",22.3200351,114.1562365
"溱柏 1座 5樓 A室","Park Signature","68 Kung Um Rd, Yuen Long, Hong Kong",22.436503,114.0237757
"南角道29-31號 五樓 C室(29A號)",NA,NA,NA,NA
"萬發樓 四樓 A室","萬發樓","Man Fat House, Nam Kok Rd, Kowloon City, Hong Kong",22.32966,114.1897885
"南角道25-27號 六樓 27號","六 27 号","六 27 号, 25 Nam Kok Rd, Kowloon City, Hong Kong",22.3290482,114.1898569
"友隆樓 五樓 B室","卓寶樓","Check Bo House, S Wall Rd, Kowloon City, Hong Kong",22.3303413,114.1910989
"昌盛大樓 二樓 D室","Cheong Shing Court Block D Cheong Yun House","Cheong Shing Court Block D Cheong Yun House, 20 Wah Ming Rd, Fanling, Hong Kong",22.4835077,114.1388146
"衙前塱道74-80號 七樓 78號(C室)",NA,NA,NA,NA
"康栢苑 龍柏閣 (B座) 十三樓 5室",NA,NA,NA,NA
"海璇 2B-3期 海璇 II 1座 5樓 B室",NA,NA,NA,NA
"101 Kings Road 15樓 J室","15 j","15 j, 101 King's Road, 101 King's Rd, Causeway Bay, Hong Kong",22.28716,114.1925112
"101 Kings Road 16樓 J室","16 j","16 j, 101 King's Road, 101 King's Rd, Causeway Bay, Hong Kong",22.28716,114.1925112
"101 Kings Road 20樓 J室","20 j","20 j, 101 King's Road, 101 King's Rd, Causeway Bay, Hong Kong",22.28716,114.1925112
"101 Kings Road 22樓 J室","22 j","22 j, 101 King's Road, 101 King's Rd, Causeway Bay, Hong Kong",22.28716,114.1925112
"St. George's Mansions 3座 16樓 B室",NA,NA,NA,NA
"栢慧豪園 2期 栢慧豪廷 7座 57樓 C室",NA,NA,NA,NA
"海福花園 福熹閣 (2座) 27樓 A室","Holford Garden Fook Hey Court","Holford Garden Fook Hey Court, Chik Wan St, Tai Wai, Hong Kong",22.3734129,114.1761721
"太古城 星輝台 海星閣 (48座) 13樓 A室",NA,NA,NA,NA
"光超台 車位 低層地下2樓 9號",NA,NA,NA,NA
"廣明苑 廣隆閣 (B座) 30樓 12室","Kwong Ming Court Kwong Lung House","Kwong Ming Court Kwong Lung House, 108 Po Hong Rd, Tseung Kwan O, Hong Kong",22.3123176,114.2591567
"錦豐苑 錦荷閣 (H座) 18樓 9室","Kam Tai Court Block H Kam Ying House","Hong Kong, 馬鞍山路",22.4067747,114.2205182
"碧海藍天 1座 30樓 C室","Aqua Marine Tower 1","Aqua Marine Tower 1, 8 Sham Shing Rd, Cheung Sha Wan, Hong Kong",22.3328503,114.1491607
"朗賢峯 2A期 3座 7樓 F室",NA,NA,NA,NA
"港島南岸 3C期 Blue Coast II 3座 23樓 C室",NA,NA,NA,NA
"日出康城 12期B Park Seasons 2座 (2B) 17樓 A室",NA,NA,NA,NA
"御皇庭 2座 高層 F室","Royal Green Tower 2","Royal Green Tower 2, 18 Ching Hiu Rd, Sheung Shui, Hong Kong",22.494991,114.1268608
"峻巒 1B期 Park Yoho Venezia 3A座 高層 B室",NA,NA,NA,NA
"凱滙 2期 5座 中層 G室",NA,NA,NA,NA
"將軍澳中心 2期 11座 低層 D室",NA,NA,NA,NA
"德福花園 Q座 中層 11室",NA,NA,NA,NA
"碧麗閣 E座 低層 E3室","Phoenix Court","5-11 Fessenden Rd, Beacon Hill, Hong Kong",22.3421521,114.1818095
"海利大廈 低層 B室","海利行","35～37號 Haiphong Rd, Tsim Sha Tsui, Hong Kong",22.2979703,114.1704539
"聽濤雅苑 1期 2座 中層 E室",NA,NA,NA,NA
"李鄭屋邨 孝廉樓 (8座) 低層 11室","Lei Cheng Uk Estate Hau Lim House","Lei Cheng Uk Estate Hau Lim House, 10 Fat Tseung St, Lei Cheng Uk, Hong Kong",22.3384031,114.1611446
"怡心園 3座 中層 A室","怡心园三座","Serenity Place Block 3, 88號 Po Hong Rd, Tseung Kwan O, Hong Kong",22.3220391,114.2537976
"海日灣II 9座 中層 J室",NA,NA,NA,NA
"富雅花園 3座 高層 K室","Full Art Garden Block 3","Full Art Garden Block 3, Shek Kong, Hong Kong",22.4256962,114.085187
"皇后大道西416-418號 低層 B室",NA,NA,NA,NA
"嘉湖山莊 1期 樂湖居 12座 低層 E室","Locwood Court - Kingswood Villas Block 12","Locwood Court - Kingswood Villas Block 12, 1 Tin Wu Rd, Tin Shui Wai, Hong Kong",22.4528588,113.9999948
"萬景峯 3座 低層 A室",NA,NA,NA,NA
"海堤灣畔 5座 中層 C室","Seaview Crescent Club House","8 Tung Chung Waterfront Rd, Seaview Crescent, Hong Kong",22.2925987,113.9432144
"東環 2期 2A座 中層 5室","Century Link Tower 6A","Century Link Tower 6A, 6 Ying Hong St, Tung Chung, Hong Kong",22.2953195,113.9488338
"海福花園 福兆閣 (1座) 低層 B室","Holford Garden Fook Siu Court","Holford Garden Fook Siu Court, 2-8 Chik Wan St, Tai Wai, Hong Kong",22.3735106,114.1764939
"薈晴 2座 中層 B08室",NA,NA,NA,NA
"帝景峰 帝景居 5座 10樓 A室","Dynasty Height Tropicana","2號 Yin Ping Rd, Hong Kong",22.3434999,114.1635855
"嘉安大廈 十樓 D室","Ka On Building","Ka On Building, Poplar St, Prince Edward, Hong Kong",22.3278412,114.1676125
"Novo Land 3B期 Fiskars 1座 7樓 B室",NA,NA,NA,NA
"Victoria Coast A座 4樓 2室",NA,NA,NA,NA
"愛蝶灣 3座 3樓 J室","Aldrich Garden BLK 10","Aldrich Garden Block 10, 2 Oi Lai St, Aldrich Bay, Hong Kong",22.281842,114.228473
"富善邨 善群樓 (1座) 14樓 14室","Fu Shin Estate Shin King House","Fu Shin Estate Shin King House, On Po Rd, Tai Po, Hong Kong",22.4546873,114.1770115
"龍德苑 承德閣 (B座) 8樓 15室","Lung Tak Court Block B Shing Tak House","52號 Cape Rd, Ma Hang, Hong Kong",22.2198237,114.2088767
"啟欣苑 A座 7樓 9室",NA,NA,NA,NA
"維景灣畔 2期 7座 40樓 A室","Ocean Shores Tower 7","Ocean Shores Tower 7, 88 O King Rd, Tseung Kwan O, Hong Kong",22.3017556,114.2541649
"安秀苑 B座 3樓 14室",NA,NA,NA,NA
"安秀苑 A座 33樓 19室",NA,NA,NA,NA
"安秀苑 B座 5樓 27室",NA,NA,NA,NA
"安秀苑 A座 13樓 2室",NA,NA,NA,NA
"安秀苑 A座 10樓 27室",NA,NA,NA,NA
"安秀苑 A座 10樓 1室",NA,NA,NA,NA
"安秀苑 A座 24樓 22室",NA,NA,NA,NA
"安樺苑 B座 12樓 6室",NA,NA,NA,NA
"啟欣苑 B座 22樓 9室",NA,NA,NA,NA
"啟欣苑 A座 11樓 11室","泰萊創作","Hong Kong, 香港九龍九龍灣 宏照道11號 寶隆中心A座5樓501室",22.32499,114.209052
"啟欣苑 A座 10樓 12室",NA,NA,NA,NA
"啟欣苑 A座 35樓 18室",NA,NA,NA,NA
"啟欣苑 B座 29樓 19室",NA,NA,NA,NA
"啟欣苑 B座 33樓 1室",NA,NA,NA,NA
"頌雅苑 頌善閣 (B座) 7樓 3室","Chung Nga Court Block B Chung Sin House","Chung Nga Court Block B Chung Sin House, 8 Chung Nga Rd, Tai Po, Hong Kong",22.4594075,114.1707125
"丹桂軒 車位 地下 7號",NA,NA,NA,NA
"漁暉苑 美暉閣 (C座) 六樓 3室","Yue Fai Court Mei Fai House","Yue Fai Court Mei Fai House, 45 Yue Kwong Rd, Aberdeen, Hong Kong",22.2496421,114.1567315
"豪景花園 3期 車位 3樓 7號(車場D)",NA,NA,NA,NA
"金獅花園 1期 金輝閣 (E座) 十六樓 5室",NA,NA,NA,NA
"粉嶺名都 嘉麗閣 (7座) 13樓 D室",NA,NA,NA,NA
"新都城 3期 都會豪庭 4座 25樓 E室","Metropolis,Metro City Phase 3","8 Mau Yip Rd, Metro City, Hong Kong",22.322381,114.257139
"安國新邨 26座 一樓 後座","On Kwok Villa Block 26","On Kwok Villa Block 26, Tin Ping Rd, Sheung Shui, Hong Kong",22.5048645,114.1338213
"碧湖花園 3座 27樓 D室","碧湖花園3座","Hong Kong, Fanling, 順便智能櫃(家品區碧湖商場AEON高層地下22至29號舖及29A號舖",22.487766,114.142677
"啟豐園 4座 23樓 A室","Richland Garden Block 4","Richland Garden Block 4, 138 Wu Chui Rd, Tuen Mun, Hong Kong",22.3729637,113.9648217
"地士道街8號 四樓 A室","四 a","四 a, 8 Thistle St, Mong Kok, Hong Kong",22.3173134,114.1673666
"綠楊新邨 C座 25樓 8室","Luk Yeung Sun Chuen Block C","Luk Yeung Sun Chuen Block C, 22-66 Wai Tsuen Rd, Tsuen Wan, Hong Kong",22.3740403,114.120502
"好順福大廈 19樓 I室","Poon Man Yin, John Winston","Hong Kong, 香港元朗青山公路99-109號 元朗貿易中心20樓, 19樓及18樓A室",22.451341,114.028682
"賀龍居 3座 19樓 D室",NA,NA,NA,NA
"賀龍居 車位 1樓 1074號",NA,NA,NA,NA
"荃灣中心 安慶樓 (5座) 9樓 E室","Tsuen Wan Centre Anking House","Tsuen Wan Centre Anking House, 97 Tsuen King Circuit, Hong Kong",22.3780014,114.1073565
"兆禧閣 18樓 A室","Siu On Court Block C Ting Hei House","Hong Kong, 屯門鄉事會路",22.3894269,113.9755551
"迎濤灣 1座 (A座) 31樓 A室","Marbella Tower 1","Marbella Tower 1, 23 On Chun St, Ma On Shan, Hong Kong",22.4253405,114.2272777
"擎天半島 車位 1樓 117號",NA,NA,NA,NA
"大興花園 2期 3座 5樓 A室","大興花園二期五座","Tai Hing Garden Phase 2 Block 5, 5號 Ho Hing Circuit, Tuen Mun, Hong Kong",22.3993524,113.9707266
"玖瓏山 月瓏閣 第2座 5樓 C室","Rragons Range Court B Tower 2","Rragons Range Court B Tower 2, Dragons Range, 33 Lai Ping Rd, Kau To Shan, Hong Kong",22.4130269,114.1993459
"玖瓏山 車位 低層地下 LG175號","Dragons Range","Dragons Range, 33 Lai Ping Rd, Kau To Shan, Hong Kong",22.413598,114.1994832
"海峰園 車位 2樓 30號","Harbour Heights (Open Space) Car Park (Wilson Parking)","5 Fook Yum Rd, Causeway Bay, Hong Kong",22.288191,114.190511
"翠麗花園 3座 16樓 B室","Tsui Lai Garden Block 3","Tsui Lai Garden Block 3, 9 Fung Nam Rd, Sheung Shui, Hong Kong",22.5085238,114.1288171
"宏景花園 5座 30樓 E室","Grand View Garden","185號 Hammer Hill Rd, Sheung Yuen Leng, Hong Kong",22.3411704,114.2080904
"啟鑽苑 5座 (啟湖閣) 7樓 6室","Kai Chuen Court","235號 Choi Hung Rd, Tai Hom, Hong Kong",22.3393001,114.2000991
"啟鑽苑 4座 (啟濤閣) 26樓 16室",NA,NA,NA,NA
"傲玟 3座 17樓 D室",NA,NA,NA,NA
"司徒拔道47A號 7樓 A室","7 a","7 a, 47 Stubbs Rd, Happy Valley, Hong Kong",22.268496,114.17605
"灝景灣 2期 5座 31樓 F室",NA,NA,NA,NA
"嘉景花園 D座 六樓 F室","嘉景花園D座","Grandview Garden Block D, 18號 San Shan Rd, To Kwa Wan, Hong Kong",22.3206297,114.1891476
"偉晴閣 九樓 B2室",NA,NA,NA,NA
"福群大廈 2樓 C室",NA,NA,NA,NA
"銀禧花園 車位 2樓 88號",NA,NA,NA,NA
"海璇 2B-3期 海璇 II 1座 11樓 A室",NA,NA,NA,NA
"翠濤居 車位 地下 90號","Palm Cove Tower 1","Palm Cove Tower 1, 168 Castle Peak Road-Castle Peak Bay, Tuen Mun, Hong Kong",22.3803694,113.980248
"滙都 1期 滙都 I 2座 2樓 B02室",NA,NA,NA,NA
"滙都 2期 滙都 II 6座 1樓 B02室",NA,NA,NA,NA
"滙都 2期 滙都 II 6座 2樓 A03室",NA,NA,NA,NA
"滙都 2期 滙都 II 6座 2樓 A05室",NA,NA,NA,NA
"滙都 2期 滙都 II 6座 3樓 B09室",NA,NA,NA,NA
"滙都 2期 滙都 II 6座 7樓 A09室",NA,NA,NA,NA
"滙都 2期 滙都 II 6座 8樓 B08室",NA,NA,NA,NA
"滙都 2期 滙都 II 6座 9樓 B08室",NA,NA,NA,NA
"滙都 2期 滙都 II 6座 9樓 B09室",NA,NA,NA,NA
"滙都 2期 滙都 II 6座 10樓 A01室",NA,NA,NA,NA
"滙都 2期 滙都 II 6座 11樓 B07室",NA,NA,NA,NA
"滙都 2期 滙都 II 6座 12樓 B02室",NA,NA,NA,NA
"滙都 2期 滙都 II 6座 12樓 B06室",NA,NA,NA,NA
"珀麗灣 3期 25座 22樓 F室","Park Island Tower 25","Park Island Tower 25, 8 Pak Lai Rd, Park Island, Hong Kong",22.3531502,114.0604614
"港島南岸 1期 晉環 1座 (1B) 15樓 B室",NA,NA,NA,NA
"Yoho Town 1期 9座 3樓 A室","Yoho Town Tower 1","Yoho Town Tower 1, 8 Yuen Lung St, Yuen Long, Hong Kong",22.4422974,114.0373256
"和富中心 車位 地下 214號",NA,NA,NA,NA
"寶翠園 2期 6座 23樓 G室",NA,NA,NA,NA
"Grand Yoho 1期 1座 31樓 A室",NA,NA,NA,NA
"海悅花園 1座 26樓 E室","Serene Garden Block 1","Serene Garden Block 1, Tsing Yi, Hong Kong",22.3536105,114.1074725
"尚巒 12樓 F室",NA,NA,NA,NA
"德福花園 F座 7樓 12室",NA,NA,NA,NA
"Double Coast 1期 Double Coast I 5座 6樓 C室",NA,NA,NA,NA
"高臨 A1座 29樓 B室",NA,NA,NA,NA
"聚龍居 9座 7樓 A室","Parc Royale","Parc Royale Club House, 8 Hin Tai St, Tai Wai, Hong Kong",22.3626576,114.1759184
"啟岸 18樓 C3室",NA,NA,NA,NA
"富嘉花園 3座 13樓 D室","Grandway Garden","35 Tsuen Nam Rd, Tai Wai, Hong Kong",22.373728,114.1779371
"The Yoho Hub C期 The Yoho Hub II 6座 15樓 C室",NA,NA,NA,NA
"吉喆 12樓 A室",NA,NA,NA,NA
"啟欣苑 A座 33樓 2室",NA,NA,NA,NA
"港島南岸 1期 晉環 2座 (2B) 12樓 A室",NA,NA,NA,NA
"蔚晴軒 36樓 B室",NA,NA,NA,NA
"怡翠苑 逸怡閣 (B座) 四樓 7室","怡翠苑：B座（逸怡閣）","Hong Kong, Chai Wan, B座504室 Yee Tsui Court Cheong Yee House",22.2647547,114.2388625
"金富大廈 15樓 A4室","Peace Building","Peace Building, 3 Peace Ave, Ho Man Tin, Hong Kong",22.3180108,114.1744272
"御龍山 1座 12樓 B室","The Palazzo Tower 1","The Palazzo Tower 1, 28 Lok King St, Fo Tan, Hong Kong",22.3942277,114.198915
"勝興樓 四樓 E室","勝興樓","Shing Hing Building, Lai Chi Kok Rd, Prince Edward, Hong Kong",22.3243357,114.1662092
"嵐岸 7座 7樓 A室","Sausalito Tower 7","Sausalito Tower 7, 1 Yuk Tai St, Ma On Shan, Hong Kong",22.4119818,114.2228347
"滿名山 滿庭 7座 3樓 D室",NA,NA,NA,NA
"駿豪閣 車位 車庫2層 13號","Juntaihao Business Center Underground Garage Parking Lot","China, Guangdong Province, Shenzhen, Baoan, 97, 东南方向120米 邮政编码: 518103",22.6875361,113.8018471
"海怡半島 4期 御庭園 御泉居 (32座) 27樓 C室","South Horizons The Oasis Podium Garden","Ap Lei Chau, Hong Kong",22.2430894,114.1496739
"昇悅居 8座 9樓 H室","liberté","833 Lai Chi Kok Rd, Cheung Sha Wan, Hong Kong",22.3346889,114.149032
"鵬程苑 9樓 11室",NA,NA,NA,NA
"綠楊新邨 F座 18樓 6室","Luk Yeung Sun Chuen Block F","Luk Yeung Sun Chuen Block F, 22-66 Wai Tsuen Rd, Tsuen Wan, Hong Kong",22.3739376,114.1190596
"青山道154號 五樓 B室","五 b","五 b, 154 Castle Peak Rd, Lei Cheng Uk, Hong Kong",22.335888,114.1598098
"康樂園 第五街 30號","Hong Lok Yuen - 30 5th Street","Hong Lok Yuen - 30 5th Street, 30 Hong Lok Yuen 5th St, Hong Lok Yuen, Hong Kong",22.461033,114.1539795
"南豐新邨 11座 26樓 G室","Nan Fung Sun Chuen","21 Greig Cres, Quarry Bay, Hong Kong",22.2822897,114.2144634
"荃灣中心 杭州樓 (3座) 18樓 H室",NA,NA,NA,NA
"麗港城 4期 21座 24樓 G室","Laguna City Phase 4 Car Park","Laguna City Block 23, 15 Laguna St, Sai Tso Wan, Hong Kong",22.306087,114.226791
"德福花園 Q座 10樓 12室",NA,NA,NA,NA
"博康邨 博文樓 (1座) 19樓 21室","Pok Hong Estate Pok Man House","Pok Hong Estate Pok Man House, 6 Sha Kok St, Sha Tin, Hong Kong",22.3748517,114.1917274
"日出康城 9期B Grand Marini 2座 (2A) 48樓 A室",NA,NA,NA,NA
"新都城 3期 都會豪庭 車位 地庫 RC249號",NA,NA,NA,NA
"駿逸峰 31樓 A室","The Morrison","28 Yat Sin St, Morrison Hill, Hong Kong",22.277746,114.179457
"碧堤半島 2期 2座 45樓 D室",NA,NA,NA,NA
"Belgravia Place 1期 1B座 2樓 12室",NA,NA,NA,NA
"林海山城 16座",NA,NA,NA,NA
"山翠苑 翠碧閣 (D座) 4樓 4室",NA,NA,NA,NA
"泓碧 H18座",NA,NA,NA,NA
"沙田第一城 1期 10座 18樓 C室",NA,NA,NA,NA
"錦豐苑 錦菱閣 (B座) 4樓 5室","Kam Fung Court Block B Kam Ning House","Kam Fung Court Block B Kam Ning House, 638 Sai Sha Rd, Ma On Shan, Hong Kong",22.4241117,114.2259387
"錦英苑 錦悅閣 (G座) 十八樓 10室","錦英苑：G座（錦悅閣）","Kam Ying Court Block G Kam Yuet House, 9 Kam Ying Rd, Ma On Shan, Hong Kong",22.4219438,114.2359789
"東裕大廈 1樓 A室",NA,NA,NA,NA
"涵碧別墅 四樓 3A室","Hamburg Villa","Hamburg Villa, 8-10 Eastbourne Rd, Beacon Hill, Hong Kong",22.3431446,114.1770725
"雲滙 2期 11座 15樓 B1室",NA,NA,NA,NA
"逸意居 1座 16樓 C室",NA,NA,NA,NA
"藍灣半島 6座 35樓 B室","Island Resort Block 6","Island Resort Block 6, 28 Siu Sai Wan Rd, Siu Sai Wan, Hong Kong",22.2663354,114.2516025
"兆禧苑 安禧閣 (A座) 五樓 15室","Siu Hei Court On Hei House","Siu Hei Court On Hei House, 201 Wu Chui Rd, Tuen Mun, Hong Kong",22.3731717,113.9676745
"愛琴海岸 3座 15樓 H室","Aegean Coast Tower 3","Aegean Coast Tower 3, 2 Kwun Tsing Rd, So Kwun Wat, Hong Kong",22.3723014,113.9946981
"愛琴海岸 2座 23樓 C室","Aegean Coast Tower 2","Aegean Coast Tower 2, 2 Kwun Tsing Rd, So Kwun Wat, Hong Kong",22.3720178,113.9948375
"港島南岸 3C期 Blue Coast II 5座 25樓 D室",NA,NA,NA,NA
"東堤灣畔 車位 P1樓(南) D5號",NA,NA,NA,NA
"The Holborn B座 7樓 B8室",NA,NA,NA,NA
"葵俊苑 葵豐閣 (C座) 35樓 7室",NA,NA,NA,NA
"帝堡城 車位 2樓 P264號",NA,NA,NA,NA
"Belgravia Place 1期 1A座 25樓 2室",NA,NA,NA,NA
"維港滙 3期 1座 (1B) 19樓 G室",NA,NA,NA,NA
"匯景花園 8座 3樓 G室","Sceneway Garden","1, 17 Sceneway Rd, Sceneway Garden, Hong Kong",22.3069935,114.2331127
"海茵莊園 2座 27樓 B5室",NA,NA,NA,NA
"朗庭園 3座 21樓 B室","Villa By The Park Block 3","Villa By The Park Block 3, 139 Castle Peak Road-Ping Shan, Yuen Long, Hong Kong",22.4446099,114.0176216
"東亞花園 大發樓 14樓 1室","East Asia Gardens Tai Fat House","East Asia Gardens Tai Fat House, 2 Tsuen Wing St, Tsuen Wan, Hong Kong",22.3682459,114.121849
"愉城苑 城欣閣 (A座) 八樓 6室","Yue Shing Court Shing Yan House","Yue Shing Court Shing Yan House, 12 Tai Chung Kiu Rd, Sha Tin, Hong Kong",22.3781639,114.1922778
"海典灣 車位 低層地下 LG129號",NA,NA,NA,NA
"麗都花園 4座 27樓 H室","Lido Garden Block 4","Lido Garden Block 4, 41-63 Castle Peak Road-Sham Tseng, Sham Tseng, Hong Kong",22.3664092,114.059509
"綠楊新邨 K座 9樓 1室","Luk Yeung Sun Chuen Block K","Luk Yeung Sun Chuen Block K, 22-66 Wai Tsuen Rd, Tsuen Wan, Hong Kong",22.3726836,114.1215006
"富怡花園 5座 13樓 E室","Cheerful Garden Block 5","Cheerful Garden Block 5, 23 Siu Sai Wan Rd, Siu Sai Wan, Hong Kong",22.2628166,114.2507286
"金來大廈 十一樓 I室","Kinley Building","Kinley Building, Kam Wa St, Shau Kei Wan, Hong Kong",22.2778928,114.229174
"翠峰小築 2座 3樓 C室","Castle Peak Court Block 2","Castle Peak Court Block 2, 134 Castle Peak Road-Castle Peak Bay, Tuen Mun, Hong Kong",22.378729,113.9819439
"太古城 海天花園 恆天閣 (59座) 24樓 D室",NA,NA,NA,NA
"佳景樓 1樓 A室",NA,NA,NA,NA
"佳景樓 3樓 A室",NA,NA,NA,NA
"衙前圍道84A號 三樓 84A號","三 84a","三 84a, 84 Nga Tsin Wai Road, 84 Nga Tsin Wai Rd, Kowloon City, Hong Kong",22.3290709,114.1897738
"南角道34號 四樓 34號","四 34 号","四 34 号, 34 Nam Kok Rd, Kowloon City, Hong Kong",22.329339,114.190047
"太古城 高山台 車位 地下 175 號(3-11)",NA,NA,NA,NA
"101 Kings Road 6樓 A室","6 a","6 a, 101 King's Road, 101 King's Rd, Causeway Bay, Hong Kong",22.28716,114.1925112
"101 Kings Road 8樓 F室","8 f","8 f, 101 King's Road, 101 King's Rd, Causeway Bay, Hong Kong",22.28716,114.1925112
"101 Kings Road 8樓 J室","8 j","8 j, 101 King's Road, 101 King's Rd, Causeway Bay, Hong Kong",22.28716,114.1925112
"101 Kings Road 11樓 B室","11 b","11 b, 101 King's Road, 101 King's Rd, Causeway Bay, Hong Kong",22.28716,114.1925112
"101 Kings Road 11樓 F室","11 f","11 f, 101 King's Road, 101 King's Rd, Causeway Bay, Hong Kong",22.28716,114.1925112
"101 Kings Road 19樓 F室","19 f","19 f, 101 King's Road, 101 King's Rd, Causeway Bay, Hong Kong",22.28716,114.1925112
"101 Kings Road 19樓 J室","19 j","19 j, 101 King's Road, 101 King's Rd, Causeway Bay, Hong Kong",22.28716,114.1925112
"101 Kings Road 22樓 F室","22 f","22 f, 101 King's Road, 101 King's Rd, Causeway Bay, Hong Kong",22.28716,114.1925112
"101 Kings Road 26樓 F室","26 f","26 f, 101 King's Road, 101 King's Rd, Causeway Bay, Hong Kong",22.28716,114.1925112
"101 Kings Road 26樓 J室","26 j","26 j, 101 King's Road, 101 King's Rd, Causeway Bay, Hong Kong",22.28716,114.1925112
"101 Kings Road 9樓 F室","9 f","9 f, 101 King's Road, 101 King's Rd, Causeway Bay, Hong Kong",22.28716,114.1925112
"101 Kings Road 9樓 J室","9 j","9 j, 101 King's Road, 101 King's Rd, Causeway Bay, Hong Kong",22.28716,114.1925112
"101 Kings Road 11樓 J室","11 j","11 j, 101 King's Road, 101 King's Rd, Causeway Bay, Hong Kong",22.28716,114.1925112
"101 Kings Road 17樓 F室","17/F","17/F, 101 King's Rd, North Point, Hong Kong",22.2871008,114.1925578
"101 Kings Road 17樓 J室","17 j","17 j, 101 King's Road, 101 King's Rd, Causeway Bay, Hong Kong",22.28716,114.1925112
"101 Kings Road 20樓 F室","20 f","20 f, 101 King's Road, 101 King's Rd, Causeway Bay, Hong Kong",22.28716,114.1925112
"101 Kings Road 21樓 J室","21 j","21 j, 101 King's Road, 101 King's Rd, Causeway Bay, Hong Kong",22.28716,114.1925112
"101 Kings Road 23樓 F室","23 f","23 f, 101 King's Road, 101 King's Rd, Causeway Bay, Hong Kong",22.28716,114.1925112
"101 Kings Road 23樓 J室","23 j","23 j, 101 King's Road, 101 King's Rd, Causeway Bay, Hong Kong",22.28716,114.1925112
"101 Kings Road 27樓 J室","27 j","27 j, 101 King's Road, 101 King's Rd, Causeway Bay, Hong Kong",22.28716,114.1925112
"海茵莊園 2座 38樓 D3室",NA,NA,NA,NA
"雍明苑 B座 (澤明閣) 8樓 11室",NA,NA,NA,NA
"嘉亨灣 6座 13樓 B室","Grand Promenade Tower 6","Grand Promenade Tower 6, 38 Tai Hong St, Aldrich Bay, Hong Kong",22.2850054,114.2251647
"匯璽 5期 匯璽III 7座 40樓 K室",NA,NA,NA,NA
"好運中心 桂林閣 (D2座) 19樓 A室",NA,NA,NA,NA
"寶珮苑 寶珊閣 (A座) 二樓 6室","Po Pui Court Block A Po Shan House","Hong Kong, Kwun Tong, Po Pui St, 2號, Po Pui Court Block A Po San House, A座",22.3171955,114.2286104
"匯景花園 9座 8樓 C室","Sceneway Garden","1, 17 Sceneway Rd, Sceneway Garden, Hong Kong",22.3069935,114.2331127
"栢蕙苑 寧柏閣 (4座) 26樓 E室",NA,NA,NA,NA
"大同新邨 大益樓 (M座) 十三樓 5室",NA,NA,NA,NA
"錦泰苑 錦邦閣 (B座) 13樓 5室","Kam Tai Court Block B Kam Pong House","Hong Kong, 馬鞍山路",22.4089637,114.2211449
"海茵莊園 2座 36樓 D1室",NA,NA,NA,NA
"高宏苑 A座 43樓 10室",NA,NA,NA,NA
"美松苑 富松閣 (A座) 30樓 2室",NA,NA,NA,NA
"宏豐大廈 浙江街31號 十五樓 B室",NA,NA,NA,NA
"海璇 2B-3期 海璇 II 1座 12樓 B室",NA,NA,NA,NA
"太子道西233號 11樓 B室","11 b","11 b, 233 Prince Edward Rd W, Kadoorie Hill, Hong Kong",22.3253466,114.1767333
"維港頌 7座 9樓 A室",NA,NA,NA,NA
"傲雲峰 5座 47樓 C室","Sky Tower Tower 5","Sky Tower Tower 5, 38 Sung Wong Toi Rd, Ma Tau Chung, Hong Kong",22.3235978,114.1905517
"原築 2座 13樓 H室","La Grove Tower 2","La Grove Tower 2, 83 Shap Pat Heung Rd, Yuen Long, Hong Kong",22.4373042,114.0246888
"迎海 4期 迎海．駿岸 7座 12樓 D室",NA,NA,NA,NA
"啟德1號 I 大廈第1座 27樓 B室",NA,NA,NA,NA
"港景峰 1座 52樓 C室","52 c","52 c, The Victoria Towers Tower 1, 188 Canton Rd, Tsim Sha Tsui, Hong Kong",22.302034,114.1682798
"安寧花園 4座 35樓 B室","On Ning Garden Block 4","On Ning Garden Block 4, 10 Sheung Ning Rd, Hang Hau, Hong Kong",22.3165376,114.2627787
"愉翠苑 愉居閣 (J座) 8樓 2室","Yu Chui Court Block A Yu Fun House","Yu Chui Court Block A Yu Fun House, 6號 Ngau Pei Sha St, Sha Tin, Hong Kong",22.3815283,114.204348
"原築 2座 8樓 D室","La Grove Tower 2","La Grove Tower 2, 83 Shap Pat Heung Rd, Yuen Long, Hong Kong",22.4373042,114.0246888
"新都城 2期 8座 17樓 F室",NA,NA,NA,NA
"永明樓 八樓 D室","Wing Ming Building","Wing Ming Building, 110-122 Ting On St, Ngau Tau Kok, Hong Kong",22.3184787,114.21533
"雲滙 1期 1座 9樓 A2室",NA,NA,NA,NA
"太安樓 8樓 46室","太安樓櫻","Hong Kong, Sai Wan Ho, Shau Kei Wan Rd, 57-87號號 Tai On Building",22.2827629,114.221994
"耀園花園大廈 12樓 B室",NA,NA,NA,NA
"耀園花園大廈 車位 低層地下 26號",NA,NA,NA,NA
"銀行大廈 3樓 H室",NA,NA,NA,NA
"淘大花園 3期 P座 9樓 6室",NA,NA,NA,NA
"建邦大廈 11樓 A室","建邦大廈","27B Shu Kuk St, North Point, Hong Kong",22.2920935,114.2000054
"金獅花園 1期 金輝閣 (E座) 二十一樓 1室",NA,NA,NA,NA
"啟鑽苑 4座 (啟濤閣) 36樓 5室",NA,NA,NA,NA
"青怡花園 7座 7樓 F室",NA,NA,NA,NA
"河畔花園 C座 三十五樓 3室",NA,NA,NA,NA
"新都城 2期 2座 36樓 C室",NA,NA,NA,NA
"帝景灣 5座 5樓 D室",NA,NA,NA,NA
"黃埔花園 3期 翠楊苑 2座 5樓 F室","黃埔花園三期翠楊苑5座","120號 Baker St, Whampoa Garden, Hong Kong",22.3046948,114.1868509
"天璽．天 1期 3座 38樓 B室",NA,NA,NA,NA
"采頤花園 10座 17樓 G室","Block 1, Rhythm Garden","Rhythm Garden Block 1, 號, 242號 Choi Hung Rd, San Po Kong, Hong Kong",22.3374159,114.2028311
"御海灣 2期 1座 28樓 K室",NA,NA,NA,NA
"怡心園 1座 36樓 E室","Serenity Place Block 1","Serenity Place Block 1, 88 Po Hong Rd, Tseung Kwan O, Hong Kong",22.3224244,114.2531201
"鴻運街25號 五樓 25號","五 25 号","五 25 号, 25 Hung Wan St, Ma Tau Kok, Hong Kong",22.3215945,114.1926181
"香港黃金海岸 1座 10樓 B室","Hong Kong Gold Coast Block 1","Hong Kong Gold Coast Block 1, Castle Peak Bay, 1 Castle Peak Road-Castle Peak Bay, So Kwun Wat, Hong Kong",22.3734048,113.9905943
"聯盛大廈 燕安閣 十四樓 6室",NA,NA,NA,NA
"海天豪苑 12樓 G室","The Blue Yard","The Blue Yard, 1 Tai Uk St, Tsuen Wan, Hong Kong",22.3701469,114.1149047
"天富苑 能富閣 (M座) 36樓 2室","Tin Fu Court Block M Nang Fu House","15 Tin Sau Rd, Tin Shui Wai, Hong Kong",22.464871,114.0001102
"富健花園 8座 28樓 G室","Glorious Garden Block 8","Glorious Garden Block 8, 45 Lung Mun Rd, Tuen Mun, Hong Kong",22.3825794,113.9663323
"富榮花園 15座 5樓 E室","Charming Garden Phase 1 Block 15","Charming Garden Phase 1 Block 15, 8 Hoi Ting Rd, Charming Garden, Hong Kong",22.3142802,114.1652788
"疊茵庭 3座 24樓 H室","Parkland Villas Phase 1 Block 3","Parkland Villas Phase 1 Block 3, 1 Tuen On Ln, Tuen Mun, Hong Kong",22.4100324,113.9820136
"海茵莊園 2座 37樓 A8室",NA,NA,NA,NA
"嘉悅半島 2座 18樓 A室","The Sea Crest Block 2","The Sea Crest Block 2, 1 Hang Kwai St, Tuen Mun, Hong Kong",22.38229,113.9727208
"藍澄灣 3座 16樓 D室","Rambler Crest Tower 3","Rambler Crest Tower 3, 1 Tsing Yi Rd, Tsing Yi, Hong Kong",22.3429184,114.1099313
"蝶翠峰 1樓 211號",NA,NA,NA,NA
"麗晶花園 21座 20樓 A室","丽晶花园一座","Wang Kwong Rd, Kowloon Bay, Hong Kong",22.329365,114.2070248
"山海大廈 四樓 B室","Hill Main Mansion","41號 Ha Heung Rd, To Kwa Wan, Hong Kong",22.3167903,114.188808
"上水名都 巴黎閣 (3座) 中層 C室","Sheung Shui Town Centre Paris Court","Sheung Shui Town Centre Paris Court, 9 Chi Cheong Rd, Sheung Shui, Hong Kong",22.5009463,114.1315105
"藍塘傲 7座 高層 E室",NA,NA,NA,NA
"Grand Austin 1座 低層 A室",NA,NA,NA,NA
"慧景軒 2座 低層 A室","Vianni Cove Tower 2","Vianni Cove Tower 2, 33 Tin Kwai Rd, Tin Shui Wai, Hong Kong",22.4665309,114.0040415
"康華大廈 1座 高層 B室","Hong Wah Mansion Block 1","Hong Wah Mansion Block 1, 18 Nam Hong St, Shau Kei Wan, Hong Kong",22.2782338,114.2260993
"雍明苑 A座 (潤明閣) 中層 23室",NA,NA,NA,NA
"浪澄灣 9座 高層 B室","The Long Beach Tower 9","The Long Beach Tower 9, 8 Hoi Fai Rd, Tai Kok Tsui, Hong Kong",22.3204497,114.1559054
"將軍澳中心 1期 7座 低層 C室",NA,NA,NA,NA
"曼克頓山 3座 高層 E室","Manhattan Hill Tower 3","Manhattan Hill Tower 3, 1 Po Lun St, Lai Chi Kok, Hong Kong",22.3346314,114.1423562
"天晉 海天晉 6A座 低層 C室",NA,NA,NA,NA
"翠怡花園 1期 1座 低層 C室",NA,NA,NA,NA
"御皇臺 低層 E室","Royal Terrace","Royal Terrace, 933 King's Rd, Quarry Bay, Hong Kong",22.2895066,114.2098563
"日出康城 6期 Lp6 3座 低層 B室",NA,NA,NA,NA
"嘉威大廈 A座 高層 1室",NA,NA,NA,NA
"Yoho Town 2期 Yoho Midtown 1座 中層 G室",NA,NA,NA,NA
"明雅苑 明欣閣 (B座) 高層 10室","Ming Nga Court Block B Ming Yan House","Ming Nga Court Block B Ming Yan House, Tai Po, Hong Kong",22.4516224,114.1752465
"太古城 海景花園(西) 紫樺閣 (36座) 低層 C室",NA,NA,NA,NA
"運頭塘邨 運亨樓 (5座) 低層 1室",NA,NA,NA,NA
"富萊花園 1期 銀菊閣 (1座) 低層 C室",NA,NA,NA,NA
"天璽 21座 - 5區 (星鑽) 低層 D室",NA,NA,NA,NA
"毓成大廈 中層 A室","Yuk Sing Building","Yuk Sing Building, Yuk Sau St, Happy Valley, Hong Kong",22.2686657,114.1859394
"愉景新城 2期 6座 高層 G室",NA,NA,NA,NA
"灣景花園 5座 低層 D室","Bayview Garden Block 5","Bayview Garden Block 5, 633 Castle Peak Rd - Tsuen Wan, Tsuen Wan, Hong Kong",22.3700339,114.0999898
"東環 1期 6B座 高層 10室",NA,NA,NA,NA
"翠景花園 1座 中層 F室","Park View Garden","Park View Garden Block 1, 8 Pik Tin St, Tai Wai, Hong Kong",22.3783042,114.172895
"愉景新城 2期 6座 高層 C室",NA,NA,NA,NA
"全．城匯 8座 中層 C室",NA,NA,NA,NA
"映灣園 3期 悅濤軒 11座 高層 F室",NA,NA,NA,NA
"長盛豪苑 中層 B室","Charming Garden","638 Cheung Sha Wan Rd, Cheung Sha Wan, Hong Kong",22.3384845,114.152555
"樂陶苑 D座 低層 14室",NA,NA,NA,NA
"長安邨 安洋樓 (2座) 中層 17室","長安邨2座安洋樓","Cheung On Estate Block 2 On Yeung House, 1 Tam Kon Shan Rd, Tsing Yi, Hong Kong",22.3620698,114.1014776
"溱柏 2座 低層 B室",NA,NA,NA,NA
"尚悅 12座 中層 K室",NA,NA,NA,NA
"映灣園 3期 悅濤軒 10座 低層 H室",NA,NA,NA,NA
"仁樂大廈 A座 2樓 C室",NA,NA,NA,NA
"荃灣中心 上海樓 (7座) 6樓 E室","Tsuen Wan Centre Shanghai House","Tsuen Wan Centre Shanghai House, 93 Tsuen King Circuit, Hong Kong",22.3780519,114.1077745
"葵豐樓 13樓 A室","MH Hub","Hong Kong, Kwai Chung, Kwai Cheong Rd, 9-15號, Kwai Fong Industrial Building, 中心13樓B3室",22.3647507,114.1337252
"太古城 海天花園 景天閣 (63座) 13樓 C室",NA,NA,NA,NA
"新成路119號 二樓 119號","二 119 号","二 119 号, 119 San Shing Ave, Sheung Shui, Hong Kong",22.5043003,114.1298223
"南灣御苑 1座 8樓 B室","South Bay Place Tower 1","South Bay Place Tower 1, 25 S Bay Cl, Repulse Bay, Hong Kong",22.2385927,114.2016051
"海逸豪園 4期(IVA) 海逸灣 21座 15樓 D室","Laguna Verde Laguna Grande Block 21","Laguna Verde Laguna Grande Block 21, 8 Laguna Verde Ave, Hung Hom, Hong Kong",22.3073572,114.1927723
"薈朗 2座 9樓 A02室",NA,NA,NA,NA
"日出康城 4期B 晉海ll 5B座 43樓 C室",NA,NA,NA,NA
"南浪海灣 5座 37樓 D室","Nerine Cove Block 5","Nerine Cove Block 5, 23 Hang Fu St, Tuen Mun, Hong Kong",22.3829723,113.9719339
"海溢閣 3樓 C室","海溢閣","Hayon Building, 8 Tak Cheong Ln, Yau Ma Tei, Hong Kong",22.312907,114.167718
"爾巒 茵娜大道 1座","爾巒茵娜大道8座","Enna Blvd, Kam Tin, Hong Kong",22.4421222,114.054304
"將軍澳中心 1期 5座 37樓 G室",NA,NA,NA,NA
"兆安苑 定民閣 (E座) 十五樓 4室",NA,NA,NA,NA
"名城 3期 盛世 5座 7樓 NB室",NA,NA,NA,NA
"淘大花園 3期 P座 32樓 7室",NA,NA,NA,NA
"啟欣苑 A座 2樓 23室",NA,NA,NA,NA
"河畔花園 車位 2樓 89號","Shatinpark Stage 2 Car Park","Hong Kong, 崗背街1～3號",22.38136,114.1961757
"黃埔花園 7期 紅棉苑 4座 13樓 D室",NA,NA,NA,NA
"黃埔花園 2期 錦桃苑 10座 15樓 A室","黃埔花園2期9座","9號 Shung King St, Whampoa Garden, Hong Kong",22.304542,114.1887208
"玖瓏山 傲瓏閣 第1座 7樓 A室","Dragons Range Court C Tower 1","Dragons Range Court C Tower 1, Dragons Range, 33 Lai Ping Rd, Kau To Shan, Hong Kong",22.4135556,114.1992154
"富嘉花園 2座 22樓 L室",NA,NA,NA,NA
"淘大花園 2A期 I座 22樓 8室",NA,NA,NA,NA
"彩蒲苑 彩瑩閣 (A座) 二十五樓 5室",NA,NA,NA,NA
"大埔寶馬山 7座 3樓 D室","Grand Palisades Block 7","Grand Palisades Block 7, 8 Shan Yin Rd, Tai Po, Hong Kong",22.4407243,114.172893
"海峰園 車位 4樓 1號","Harbour Heights (Open Space) Car Park (Wilson Parking)","5 Fook Yum Rd, Causeway Bay, Hong Kong",22.288191,114.190511
"愉翠苑 愉歡閣 (A座) 31樓 8室","Yu Chui Court Block A Yu Fun House","Yu Chui Court Block A Yu Fun House, 6號 Ngau Pei Sha St, Sha Tin, Hong Kong",22.3815283,114.204348
"海峰園 車位 4樓 10號","Harbour Heights (Open Space) Car Park (Wilson Parking)","5 Fook Yum Rd, Causeway Bay, Hong Kong",22.288191,114.190511
"油塘中心 8座 4樓 F室","油塘中心","1 Ka Wing St, Yau Tong, Hong Kong",22.2944725,114.2389596
"半島豪庭 4座 37樓 G室","Royal Peninsula Block 4","Royal Peninsula Block 4, Hung Hom, Hong Kong",22.3048535,114.184877
"中星樓 十一樓 4室",NA,NA,NA,NA
"衙前圍大樓 九樓 C室","Centaline Property","Hong Kong, To Kwa Wan, Sung Wong Toi Rd, 38號傲雲峰地下3A舖",22.3234995,114.1897611
"衙前圍大樓 九樓 F室","Wall City Flavor","Hong Kong, Kowloon City, Carpenter Rd, 128號九龍城廣場1樓126店",22.3309656,114.188337
"衙前圍大樓 八樓 G室","Pocity Engineering Co","Hong Kong, Ngau Chi Wan, King Tung St, 8號, Kingsford Terrace Block 4, 30樓G室",22.340621,114.210488
"衙前圍大樓 八樓 F室","旺景工業大廈F座8樓05室","Flat A 2/F, Wong King Industrial Building, 2 Tai Yau St, San Po Kong, Hong Kong",22.3387964,114.1988701
"衙前圍大樓 九樓 G室","45 Nga Tsin Wai Road","45 Nga Tsin Wai Rd, Kowloon City, Hong Kong",22.328839,114.188342
"衙前圍大樓 八樓 E室","HA Cube","Hong Kong, San Po Kong, Tai Yau St, 3號萬迪廣場 8樓D & E室",22.3383572,114.1990798
"達德樓 五樓 32A號",NA,NA,NA,NA
"合眾樓 三樓 31號","合眾樓","31-41號 Kai Tak Rd, Kowloon City, Hong Kong",22.3293714,114.1919511
"恆勝樓 B座 四樓 B1室","Victory Building","109-115號 Carpenter Rd, Kowloon City, Hong Kong",22.3301534,114.1883411
"愉城苑 城康閣 (D座) 四樓 7室","Yue Shing Court Shing Hong House","Yue Shing Court Shing Hong House, 12 Tai Chung Kiu Rd, Sha Tin, Hong Kong",22.3787636,114.1928554
"福昇大廈 14樓 A室","Fok Sing Building","Fok Sing Building, 234-238 Shau Kei Wan Rd, Shau Kei Wan, Hong Kong",22.2801219,114.2244932
"海悅豪庭 1座 七樓 F室","Horae Place Block 1","Horae Place Block 1, 209 Ma Tau Wai Rd, To Kwa Wan, Hong Kong",22.3217443,114.187861
"海峯園 1座(高峯閣) 6樓 E室",NA,NA,NA,NA
"大埔廣場 宜輝閣 (2座) 15樓 J室","Tai Po Plaza Block 2 Yee Fai Court","Tai Po Plaza Block 2 Yee Fai Court, On Tai Rd, Tai Po, Hong Kong",22.4534615,114.1704687
"高宏苑 B座 29樓 3室",NA,NA,NA,NA
"恆裕大廈 3樓 E室",NA,NA,NA,NA
"兆畦苑 兆強閣 (A座) 八樓 15室",NA,NA,NA,NA
"美德大廈 19樓 E室",NA,NA,NA,NA
"啟欣苑 A座 37樓 13室",NA,NA,NA,NA
"迎海 3期 迎海‧星灣御 16座 27樓 A室",NA,NA,NA,NA
"太康大廈 18樓 D室",NA,NA,NA,NA
"豐裕大廈 4樓 A室",NA,NA,NA,NA
"啟鑽苑 4座 (啟濤閣) 12樓 16室",NA,NA,NA,NA
"黃埔花園 9期 百合苑 2座 3樓 E室",NA,NA,NA,NA
"馬頭圍道96號 十二樓 96號","十 二","十 二, 96 Ma Tau Wai Road, 96 Ma Tau Wai Rd, Hok Yuen, Hong Kong",22.3100861,114.1874405
"筲箕灣廣場 麗文苑 (1座) 7樓 F室","Shaukeiwan Plaza Lai Man Court","Shaukeiwan Plaza Lai Man Court, 17 Nam Hong St, Shau Kei Wan, Hong Kong",22.2775335,114.2262639
"美樂花園 7座 5樓 C室","Melody Garden Block 7","Melody Garden Block 7, 2 Wu Chui Rd, Tuen Mun, Hong Kong",22.3744326,113.9601751
"鴻江大廈 6樓 E室",NA,NA,NA,NA
"英麗閣 A座 11樓 3室",NA,NA,NA,NA
"君匯港 6座 41樓 D室",NA,NA,NA,NA
"泰峯 2A座 12樓 C室",NA,NA,NA,NA
"睿峰 東翼 32樓 C室",NA,NA,NA,NA
"No. 1 加冕臺 21樓 B室","21 b","21 b, 1 Coronation Terrace, Mid-Levels, Hong Kong",22.2823026,114.1514436
"東蘭閣 B座 12樓 M室(13室)",NA,NA,NA,NA
"倫美大廈 16樓 C室",NA,NA,NA,NA
"嘉峰臺 車位 平台3層 18號",NA,NA,NA,NA
"豫苑 1座 3樓 G室","Euston Court Block 1","Euston Court Block 1, 6 Park Road, Mid-Levels, Hong Kong",22.2841405,114.1452153
"蝶翠峰 5期 尚悅‧嶺 1座 2樓 K室",NA,NA,NA,NA
"寶星中心 D座 3樓 6室","寶星中心C座","Po Sing Centre Block C, 1號 Ta Chuen Ping St, Kwai Chung, Hong Kong",22.366169,114.136216
"維景灣畔 3期 11 座 19樓 D室",NA,NA,NA,NA
"太和邨 居和樓 (4座) 23樓 1室","Tai Wo Estate Block 4 Kui Wo House","Tai Wo Estate Block 4 Kui Wo House, Tai Po Tai Wo Rd, Tai Wo Estate, Hong Kong",22.4502453,114.1626662
"Double Coast 1期 Double Coast I 3座 11樓 C室",NA,NA,NA,NA
"逸瓏灣 II 車位 地庫 R210號",NA,NA,NA,NA
"逸瓏灣 ll 大廈12座 2樓 A室","逸珑湾低座第十二座","Mayfair By The Sea Lowrise 12, 23號 Fo Chun Rd, Providence Bay, Hong Kong",22.4302523,114.2064223
"天盛苑 盛頤閣 (C座) 32樓 14室","Tin Shing Court Block C Shing Yi House","3號 Tin Ching St, Tin Shui Wai, Hong Kong",22.4473713,114.0017576
"嘉湖山莊 1期 樂湖居 12座 16樓 H室","Locwood Court - Kingswood Villas Block 12","Locwood Court - Kingswood Villas Block 12, 1 Tin Wu Rd, Tin Shui Wai, Hong Kong",22.4528588,113.9999948
"海富苑 海寧閣 (A座) 1樓 18室","Hoi Fu Court Block A Hoi Ning House","Hoi Fu Court Block A Hoi Ning House, 2 Hoi Ting Rd, Mong Kok, Hong Kong",22.3163116,114.1643254
"長安邨 安潮樓 (6座) 5樓 10室","Cheung On Estate Block 6 On Chiu House","Cheung On Estate Block 6 On Chiu House, 1 Tam Kon Shan Rd, Nga Ying Chau, Hong Kong",22.3598647,114.1043138
"碧濤花園 2期 富臨閣 (B座) 1樓 F室","Pictorial Garden Phase 2","23號 On King St, Sha Tin, Hong Kong",22.3948619,114.208228
"光輝樓 七樓 B室","光輝大廈","Hong Kong, 光輝圍7～9號",22.367612,114.132761
"映灣園 1期 賞濤軒 1座 58樓 D室",NA,NA,NA,NA
"荃威花園 J座 20樓 3室","Allway Gardens Block J","Allway Gardens Block J, 16 On Yat St, Tsuen King Circuit, Hong Kong",22.3778601,114.1034545
"麗城花園 3期 車位 地庫2 407號","Belvedere Square Car Park","Belvedere Garden Phase 1 Block 3, 530 Castle Peak Rd - Tsuen Wan, Tsuen Wan, Hong Kong",22.371123,114.101289
"天鑄 1期 車位 2樓 2018號",NA,NA,NA,NA
"藍天海岸 1期 1座 15樓 F室","Coastal Skyline Tower 1","Coastal Skyline Tower 1, 12 Tung Chung Waterfront Rd, Coastal Skyline, Hong Kong",22.2911448,113.9469089
"NAPA 車位 B1樓 R113號",NA,NA,NA,NA
"葵豐大廈 10樓 F室","Best Life For You","Hong Kong, Kwai Chung, Kwai Fung Cres, 25-31號, Marvel Industrial Building Block A, 10樓F室",22.3561159,114.1245199
"利華閣 15樓 A室",NA,NA,NA,NA
"恒麗園 4座 25樓 A室","Hanley Villa","18號 Yau Lai Rd, Tsuen Wan, Hong Kong",22.3693155,114.0922448
"愉景灣 5期頤峰 蔚山閣 (8座) 16樓 B室","Greenvale Vill - Discovery Bay Block 21 Greenmont Court","Greenvale Vill - Discovery Bay Block 21 Greenmont Court, Discovery Bay Rd, Discovery Bay, Hong Kong",22.3063194,114.009439
"愉景灣 5期頤峰 菘山閣 (7座) 7樓 F室",NA,NA,NA,NA
"栢蕙苑 瑞柏閣 (2座) 25樓 F室","Parkvale Shui Pak Mansion","Parkvale Shui Pak Mansion, 4 Greig Road, Quarry Bay, Hong Kong",22.2841238,114.2133599
"嘉崙臺 12樓 A室",NA,NA,NA,NA
"嘉崙臺 12樓 B室",NA,NA,NA,NA
"利奧坊．凱岸 1座 17樓 L室",NA,NA,NA,NA
"景林邨 景桃樓 (6座) 20樓 6室","景桃樓","Hong Kong, 寶琳北路將軍澳第14區",22.3209665,114.260083
"擎天半島 1期 3座 28樓 D室",NA,NA,NA,NA
"恆星樓 17樓 6室","Star Mansion","Star Mansion, 3 Minden Row, Tsim Sha Tsui, Hong Kong",22.2963912,114.1734286
"帝景園 3座 3樓 B室","Dynasty Court Tower 3","Dynasty Court Tower 3, 23 Old Peak Rd, Mid-Levels, Hong Kong",22.2754572,114.153017
"帝景園 3座 24樓 B室","Dynasty Court Tower 3","Dynasty Court Tower 3, 23 Old Peak Rd, Mid-Levels, Hong Kong",22.2754572,114.153017
"麗豪閣 A座 31樓 1室","Tycoon Court Block A","Tycoon Court Block A, 8 Conduit Rd, Mid-Levels, Hong Kong",22.2785923,114.1520083
"東堤灣畔 2期 7座 43樓 B室","Tung Chung Crescent Block 7","Tung Chung Crescent Block 7, Shun Tung Rd, Tung Chung Crescent, Hong Kong",22.2888401,113.9392882
"德發大廈 21樓 D室",NA,NA,NA,NA
"好順利大廈 1座 5樓 G室","Ho Shun Lee Building Block 1","Ho Shun Lee Building Block 1, 9 Fung Yau St S, Yuen Long, Hong Kong",22.4419761,114.0345149
"黃禮賢大廈 三樓 C室","Oscar Court","Oscar Court, Fa Yuen St, Prince Edward, Hong Kong",22.3252707,114.1700795
"好順意大廈 B座 8樓 5室","Ho Shun Yee Building B","Ho Shun Yee Building B, 9 Fung Yau St E, Yuen Long, Hong Kong",22.4430965,114.0348214
"鉅發大廈 2座 5樓 B室","Kui Fat Building Tower 2","Kui Fat Building Tower 2, 11-23 Hop Choi St, Yuen Long, Hong Kong",22.443234,114.0302639
"富榮花園 1座 9樓 H室","Charming Garden","16號 Hoi Ting Rd, Yau Ma Tei, Hong Kong",22.314299,114.1630366
"筲箕灣中心 2座 (B座) 6樓 C室","Shaukeiwan Centre","Shaukiwan Centre Block 3, 407 Shau Kei Wan Rd, Shau Kei Wan, Hong Kong",22.2770213,114.2295135
"都會駅 2期 城中駅 10座 46樓 C室",NA,NA,NA,NA
"Upper Central 9樓 A室",NA,NA,NA,NA
"美孚新邨 8期 百老匯街110-112號 3樓 112號B室",NA,NA,NA,NA
"葡萄園 1期 貝翠大道 洋房17","La Maison Vineyard","La Maison Vineyard Le Cercle Vineyard, 1 Ngau Tam Mei Rd, Tam Mei, Hong Kong",22.4800609,114.0596437
"曉峰閣 3座 16樓 C室","Hillsborough Court Block 3","Hillsborough Court Block 3, 18 Old Peak Rd, Mid-Levels, Hong Kong",22.2755249,114.1523219
"名鑽 6樓 B室",NA,NA,NA,NA
"嵐山 1期 7座 6樓 D室",NA,NA,NA,NA
"The Yoho Hub C期 The Yoho Hub II 6座 40樓 C室",NA,NA,NA,NA
"名城 1期 2座 6樓 SD室",NA,NA,NA,NA
"德福花園 S座 22樓 1室",NA,NA,NA,NA
"高臨 A2座 30樓 E室",NA,NA,NA,NA
"華景山莊 車位 2樓(北) R93號",NA,NA,NA,NA
"德福花園 I座 10樓 13室",NA,NA,NA,NA
"星堤 6座 2樓 A室","Avignon Tower 6","Avignon Tower 6, 1 Kwun Chui Rd, So Kwun Wat, Hong Kong",22.3744346,113.9996845
"浩景臺 3座 5樓 E室","Highland Park Block 3","Highland Park Block 3, Kwai Chung, Hong Kong",22.3493465,114.1298854
"翠擁華庭 12座 25樓 B室","Monte Vista Block 12","Monte Vista Block 12, 9 Sha On St, Monte Vista, Hong Kong",22.4274559,114.2442982
"文蔚樓 17樓 1室(23號)","八文樓","Hong Kong, Jordan, Man Wai St, 25-47號香港佐敦文蔚街25-47號 Man Yiu Building",22.307635,114.1662706
"荔欣苑 荔采閣 (B座) 39樓 10室","Lai Yan Court Block B Lai Choi House","Lai Yan Court Block B Lai Choi House, 278 Lai King Hill Rd, Lai Chi Kok, Hong Kong",22.3432253,114.1362698
"尚文苑 16樓 10室",NA,NA,NA,NA
"紀業樓 四樓 B室","紀業樓","Kei Yip Building, Hop Yick Rd, Yuen Long, Hong Kong",22.4417056,114.0317202
"東輝大廈 十一樓 D室","Tung Fai House","Hong Kong, Tai Hang Tung Rd, 88號, Tai Hang Tung Estate Tung Fai House, 地下10-11號",22.333267,114.1719062
"啟欣苑 B座 25樓 2室",NA,NA,NA,NA
"帝琴灣 凱琴居 12座 7樓 B室","Villa Rhapsody - Symphony Bay Block 12","Villa Rhapsody - Symphony Bay Block 12, 533 Sai Sha Rd, Symphony Bay, Hong Kong",22.4292174,114.2524462
"擎天半島 1期 6座 13樓 H室",NA,NA,NA,NA
"衙前塱道27-33號 四樓 31號","四 31 号","四 31 号, 27 Nga Tsin Long Rd, Kowloon City, Hong Kong",22.328685,114.189157
"海茵莊園 2座 32樓 B6室",NA,NA,NA,NA
"畢架山一號 1期 1座 2樓 A室",NA,NA,NA,NA
"日出康城 9期C Ocean Marini 1座 (1B) 30樓 D室",NA,NA,NA,NA
"The Yoho Hub C期 The Yoho Hub II 6座 8樓 C室",NA,NA,NA,NA
"龍蟠苑 龍環閣 (G座) 二十樓 4室","Lung Poon Court Lung Wan House","Lung Poon Court Lung Wan House, 8 Fung Tak Rd, Tai Hom, Hong Kong",22.3411297,114.2005746
"碧海藍天 1座 37樓 H室","Aqua Marine Tower 1","Aqua Marine Tower 1, 8 Sham Shing Rd, Cheung Sha Wan, Hong Kong",22.3328503,114.1491607
"西貢大廈 A座 7樓 A室","Sai Kung Mansion Block A","Sai Kung Mansion Block A, 42-56 Fuk Man Rd, Sai Kung, Hong Kong",22.382445,114.2725299
"朗濤 6B座 3樓 C室",NA,NA,NA,NA
"愉景灣 1期明翠台 觀峰樓 17樓 B室","Mountain View","Parkridge Vill - Discovery Bay Blk 4 Mountain View, 4 Parkridge Cres, Discovery Bay, Hong Kong",22.3029815,114.0110781
"翠竹花園 9座 16樓 E室","Tsui Chuk Garden Block 9","Tsui Chuk Garden Block 9, 8 Chui Chuk St, Hong Kong",22.3468109,114.1866883
"泓景臺 3期 5座 55樓 D室",NA,NA,NA,NA
"101 Kings Road 6樓 F室","Rm 9","Rm 9, 101 King's Rd, Fortress Hill, Hong Kong",22.2871008,114.1925578
"101 Kings Road 6樓 J室","6 j","6 j, 101 King's Road, 101 King's Rd, Causeway Bay, Hong Kong",22.28716,114.1925112
"101 Kings Road 7樓 F室","7 f","7 f, 101 King's Road, 101 King's Rd, Causeway Bay, Hong Kong",22.28716,114.1925112
"101 Kings Road 7樓 J室","7 j","7 j, 101 King's Road, 101 King's Rd, Causeway Bay, Hong Kong",22.28716,114.1925112
"101 Kings Road 10樓 F室","10/F","10/F, 101 King's Rd, North Point, Hong Kong",22.2870182,114.1926395
"101 Kings Road 10樓 J室","10 j","10 j, 101 King's Road, 101 King's Rd, Causeway Bay, Hong Kong",22.28716,114.1925112
"101 Kings Road 12樓 F室","12 f","12 f, 101 King's Road, 101 King's Rd, Causeway Bay, Hong Kong",22.28716,114.1925112
"101 Kings Road 12樓 J室","12 j","12 j, 101 King's Road, 101 King's Rd, Causeway Bay, Hong Kong",22.28716,114.1925112
"101 Kings Road 15樓 F室","15 f","15 f, 101 King's Road, 101 King's Rd, Causeway Bay, Hong Kong",22.28716,114.1925112
"101 Kings Road 18樓 F室","18 f","18 f, 101 King's Road, 101 King's Rd, Causeway Bay, Hong Kong",22.28716,114.1925112
"101 Kings Road 18樓 J室","18 j","18 j, 101 King's Road, 101 King's Rd, Causeway Bay, Hong Kong",22.28716,114.1925112
"101 Kings Road 25樓 F室","25 f","25 f, 101 King's Road, 101 King's Rd, Causeway Bay, Hong Kong",22.28716,114.1925112
"101 Kings Road 25樓 J室","25 j","25 j, 101 King's Road, 101 King's Rd, Causeway Bay, Hong Kong",22.28716,114.1925112
"101 Kings Road 28樓 J室","28 j","28 j, 101 King's Road, 101 King's Rd, Causeway Bay, Hong Kong",22.28716,114.1925112
"101 Kings Road 30樓 F室","30 f","30 f, 101 King's Road, 101 King's Rd, Causeway Bay, Hong Kong",22.28716,114.1925112
"101 Kings Road 8樓 E室","8 e","8 e, 101 King's Road, 101 King's Rd, Causeway Bay, Hong Kong",22.28716,114.1925112
"新城中心 2座 5樓 C室","Sun Shing Centre Block 2","Sun Shing Centre Block 2, 100 Pau Chung St, To Kwa Wan, Hong Kong",22.3204065,114.1897766
"光明大廈 七樓 4室(126號)",NA,NA,NA,NA
"荃灣城市廣場 B座 16樓 2室","Tsuen Wan Town Square Block B","Tsuen Wan Town Square Block B, 67-95 Tsuen Wan Market St, Tsuen Wan, Hong Kong",22.370901,114.1190794
"玖瓏山 日瓏閣 第1座 15樓 A室","Dragons Range Court A Tower 2","Dragons Range Court A Tower 2, Dragons Range, 33 Lai Ping Rd, Kau To Shan, Hong Kong",22.413291,114.2000107
"威勝大廈 6樓 F室",NA,NA,NA,NA
"澄碧邨 19座 2樓 B室",NA,NA,NA,NA
"新寶城 3座 16樓 E室","La Cite Noble Shopping Arcade","Hong Kong, Hang Hau, Ngan O Rd, 1號, La Cite Noble Block 5, Block 4",22.3141928,114.2660291
"凱旋門 觀星閣 (2座) 25樓 A室","The Arch Star Tower","The Arch Star Tower, 1 Austin Rd W, West Kowloon, Hong Kong",22.3037008,114.163279
"殷樺花園 第一期 13樓 F室",NA,NA,NA,NA
"嘉景臺 20樓 C室",NA,NA,NA,NA
"西寧閣 2樓 E室",NA,NA,NA,NA
"俊民苑 文蘭閣 (C座) 六樓 5室",NA,NA,NA,NA
"Henley Park 1B座 35樓 F室",NA,NA,NA,NA
"凱玥 6座 9樓 A室",NA,NA,NA,NA
"緹外 6座 地下 A室",NA,NA,NA,NA
"沙田中心 海寧大廈 (B座) 16樓 E室",NA,NA,NA,NA
"安基苑 基康閣 (C座) 二十二樓 4室",NA,NA,NA,NA
"益漢洋樓 十二樓 A室","Yik Hon Building","72～78 Java Rd, North Point, Hong Kong",22.2919694,114.198945
"維港滙 2期 3座 (3B) 18樓 D室",NA,NA,NA,NA
"海典灣 5座 39樓 E室","Ocean View Tower 5","1 Po Tai St, Ma On Shan, Hong Kong",22.414535,114.223398
"恒峰花園 1座 13樓 D室","Granville Garden Block 1","Granville Garden Block 1, 18 Pik Tin St, Tai Wai, Hong Kong",22.3775121,114.1708974
"羅便臣道80號 2座 16樓 C室",NA,NA,NA,NA
"現崇山 1座 19樓 B室","香港置業 | 東中九龍 - 現崇山分行","樓12號舖, 九龍黃大仙睦鄰街8號現崇山商場2, Hong Kong",22.340828,114.197249
"將軍澳中心 2期 10座 15樓 F室",NA,NA,NA,NA
"康華苑 頌康閣 (C座) 三十一樓 6室",NA,NA,NA,NA
"豪門 17樓 B室","Le Billionnaire","Le Billionnaire, 46 Sa Po Rd, Kowloon City, Hong Kong",22.330897,114.1928913
"栢慧豪園 2期 栢慧豪廷 9座 53樓 B室",NA,NA,NA,NA
"豐盛苑 富盛閣 (C座) 11樓 7室",NA,NA,NA,NA
"昌慶大廈 5樓 D室","Cheong Hing Building","Cheong Hing Building, 53-61 Yan Hing St, Tai Po, Hong Kong",22.4493295,114.1639482
"冠德苑 B座 (冠盛閣) 24樓 7室",NA,NA,NA,NA
"富寶花園 7座 34樓 C室","Saddle Ridge Garden Block 7","Saddle Ridge Garden Block 7, Kam Ying Rd, Ma On Shan, Hong Kong",22.4248945,114.2395606
"兆康苑 兆寧閣 (S座) 三樓 4室","Siu Hong Court Block S Siu Ning House","Siu Hong Court Siu Ning House, Siu Hong Rd, Tuen Mun, Hong Kong",22.4142948,113.9777202
"寶熙苑 富熙閣 (A座) 3樓 8室","寶熙苑：A座（富熙閣）","Po Hei Court Block A Fu Hei Court, 255號 Po On Rd, Lei Cheng Uk, Hong Kong",22.3376432,114.1587952
"豫豐花園 8座 12樓 C室","The Sherwood Block 8","The Sherwood Block 8, 8 Fuk Hang Tsuen Rd, Lam Tei, Hong Kong",22.4187747,113.9855449
"卓爾居 2期 7座 12樓 B室",NA,NA,NA,NA
"富裕臺 A座 十一樓 A3室","Fortune Terrace Block A","Fortune Terrace Block A, 4-16 Tak Shing St, Yau Ma Tei, Hong Kong",22.3042232,114.1729964
"天寰 天海匯2座 23樓 F室",NA,NA,NA,NA
"翠麗軒 16樓 B室","Cherry Crest","Cherry Crest, 3 Kui In Fong, Tai Ping Shan, Hong Kong",22.2837366,114.1486583
"飛揚 1期 1座 18樓 A室",NA,NA,NA,NA
"The Yoho Hub C期 The Yoho Hub II 6座 18樓 K室",NA,NA,NA,NA
"啟欣苑 B座 13樓 13室","啟欣苑啟添閣（B座）","6號 Muk Lai St, Kai Tak, Hong Kong",22.3270887,114.1951666
"好發大廈 3樓 G室","屯門好景飯堂","Hong Kong, Tuen Mun, Kin Fat St, 11號3樓2室 屯門市地段 Goodview Industrial Building, 11號 A座",22.3985614,113.9676895
"黃大仙下邨(一區) 龍達樓 (1座) 27樓 14室",NA,NA,NA,NA
"東頭(二)邨 振東樓 7樓 9室",NA,NA,NA,NA
"健威花園 B座 20樓 4室","560 King's road","Healthy Gardens Block B, King's Rd, North Point, Hong Kong",22.2916702,114.203882
"悅湖山莊 2座 16樓 E室","Yuet Wu Villa Block 2","Yuet Wu Villa Block 2, 2 Wu Sau St, Tuen Mun, Hong Kong",22.374979,113.9683995
"澐璟 8座 32樓 A室",NA,NA,NA,NA
"連方 II 12樓 N6室","連方 II BONDLANE II","268 Hai Tan St, Sham Shui Po, Hong Kong",22.3293231,114.1577354
"連方 I 16樓 D室",NA,NA,NA,NA
"連方 I 16樓 F室",NA,NA,NA,NA
"連方 II 22樓 N5室",NA,NA,NA,NA
"麗港城 4期 21座 13樓 H室",NA,NA,NA,NA
"麗港城 4期 21座 13樓 G室",NA,NA,NA,NA
"大同新邨 大方樓 (J座) 八樓 5室","Cosmopolitan Estate Tai Fong Building","Cosmopolitan Estate Tai Fong Building, 97-105 Tai Kok Tsui Rd, Tai Kok Tsui, Hong Kong",22.3212706,114.1616315
"名鑽 10樓 E室",NA,NA,NA,NA
"綠楊新邨 Q座 21樓 1室","Perfect Medical (千色匯1期21樓)","Hong Kong, Tsuen Wan, Chung On St, 68號千色匯1期21樓2102室",22.3706309,114.1176453
"綠楊新邨 Q座 30樓 1室","Luk Yeung Sun Chuen Block Q","Luk Yeung Sun Chuen Block Q, 22-66 Wai Tsuen Rd, Tsuen Wan, Hong Kong",22.3725429,114.1205949
"將軍澳中心 1期 7座 2樓 A室",NA,NA,NA,NA
"兆山苑 樟景閣 (B座) 十七樓 1室","Cheung King House, Siu Shan Court","Hong Kong, Butterfly Beach, 21-27號地下 Wu King Estate Wu Tsui House",22.3773406,113.9638621
"利民大廈 五樓 H室","Lee Man Building","Hong Kong, Mong Kok, Tung Choi St, 108號, Lee Man Building, 號地舖",22.3201236,114.1705113
"龍蟠苑 龍璋閣 (E座) 二十三樓 12室","Lung Poon Court Lung Cheung House","Lung Poon Court Lung Cheung House, 8 Lung Poon St, Tai Hom, Hong Kong",22.3420318,114.1998315
"高雲臺 34樓 D室","Goldwin Heights","Goldwin Heights, 2 Seymour Rd, Mid-Levels, Hong Kong",22.2815523,114.1500077
"越秀廣場 秀華苑 (2座) 11樓 A室",NA,NA,NA,NA
"安盧 1樓 6號",NA,NA,NA,NA
"博康邨 博逸樓 (6座) 27樓 9室",NA,NA,NA,NA
"愉田苑 愉逸閣 (E座) 二十三樓 7室",NA,NA,NA,NA
"正街32號 五樓 32號","五 32 号","五 32 号, 32 Centre Street, 32 Centre St, Sai Ying Pun, Hong Kong",22.2873143,114.1422118
"穗禾苑 詠昌閣 (H座) 29樓 10室","Sui Wo Court Block F Hing On House","Hong Kong, Fo Tan, Sui Wo Rd, 19號穗禾路19號沙田市地段43地段 Sui Wo Court Block F Hing On House",22.3908301,114.1932766
"城市花園 2期 8座 20樓 D室","城市花園9座","10號 City Garden Rd, North Point, Hong Kong",22.290897,114.1932779
"美孚新邨 6期 蘭秀道21-23號 4樓 23號A室",NA,NA,NA,NA
"筲箕灣廣場 麗怡苑 (2座) 24樓 C室",NA,NA,NA,NA
"寶業大廈 11樓 1室","Po Yip Building Restaurant","Hong Kong, 沙咀道395",22.3676512,114.1208079
"卑路乍街32A號 二樓 32A號","二 32a","二 32a, 32a Belcher's St, Sai Wan, Hong Kong",22.2831202,114.1300841
